,name,rating,review_count,latitude,longitude,categories,location,city_bikes_ll
0,La Coïncidence,4.5,509,48.868105,2.284365,French,15 rue Mesnil,"48.865983,2.275725"
1,Le Poincaré,4.0,142,48.8650573,2.2865211,"French, Brasseries, Wine Bars",22 avenue Raymond Poincaré,"48.865983,2.275725"
2,L'Astrance,4.5,62,48.85844,2.28734,French,4 rue Beethoven,"48.865983,2.275725"
3,Crêperie Framboise Passy-Trocadéro,4.5,64,48.8588295,2.2850398999999997,"Creperies, Gluten-Free",10 bd Delessert,"48.865983,2.275725"
4,Girafe,3.5,93,48.862584000000005,2.2885815,"French, Seafood",1 place du Trocadéro,"48.865983,2.275725"
5,Sgabetti,4.5,39,48.865831,2.283666,Italian,15 rue Sablons,"48.865983,2.275725"
6,Hiramatsu,4.5,32,48.86507,2.2875099999999997,French,52 rue de Longchamp,"48.865983,2.275725"
7,Le Pergolèse,4.5,48,48.874390000000005,2.28289,French,40 rue Pergolèse,"48.865983,2.275725"
8,Frog XVI,3.5,86,48.864863,2.288216,Gastropubs,110 bis avenue Kléber,"48.865983,2.275725"
9,Bon,4.0,119,48.86018,2.2749799,"French, Pan Asian",25 rue de la Pompe,"48.865983,2.275725"
10,Le Stella,4.0,76,48.867555427657,2.2807048301161297,"French, Brasseries",133 avenue Victor Hugo,"48.865983,2.275725"
11,Le Petit Rétro,4.0,36,48.86885,2.2848,Bistros,5 Rue Mesnil,"48.865983,2.275725"
12,Musée Marmottan Monet,4.5,69,48.859139899999995,2.26755,Museums,2 rue Louis Boilly,"48.865983,2.275725"
13,Café de l'Homme,3.5,101,48.862204,2.287631,French,17 place du Trocadero,"48.865983,2.275725"
14,Corso,4.0,38,48.864897,2.289009,Italian,79 avenue Kléber,"48.865983,2.275725"
15,Schwartz's Deli,3.5,63,48.863781610496,2.2856212497981,"Burgers, American (Traditional)",7 avenue d'Eylau,"48.865983,2.275725"
16,Le Chalet,4.0,8,48.86289342,2.27634616,French,63 rue de la Pompe,"48.865983,2.275725"
17,Oum El Banine,3.5,7,48.86631,2.27326,Restaurants,16 Bis Rue Dufrenoy,"48.865983,2.275725"
18,Le Passy,4.0,22,48.85844,2.28409,"French, Brasseries",2 rue de Passy,"48.865983,2.275725"
19,LiLi,4.5,11,48.8655297161586,2.28901728987694,"Dim Sum, Cantonese",19 avenue Kléber,"48.865983,2.275725"
20,L'Avant Comptoir,4.5,647,48.85202,2.3388,"Tapas Bars, Wine Bars",3 carrefour de l'Odéon,"48.85375581057431,2.3390958085656166"
21,Semilla,4.0,105,48.85406,2.33691,"French, Brasseries",54 Rue Seine,"48.85375581057431,2.3390958085656166"
22,Chez Fernand,4.5,215,48.85461,2.33954,French,9 rue Christine,"48.85375581057431,2.3390958085656166"
23,Fish la Boissonnerie,4.5,134,48.85423,2.33699,"French, Bars, Modern European",69 rue de Seine,"48.85375581057431,2.3390958085656166"
24,Le Comptoir,4.0,447,48.851945700766,2.338757487651,Bistros,9 carrefour de l'Odeon,"48.85375581057431,2.3390958085656166"
25,Guy Savoy,4.5,83,48.857,2.3386999,French,Monnaie de Paris,"48.85375581057431,2.3390958085656166"
26,Le Procope,3.5,306,48.85303986886699,2.33873112110052,"French, Seafood",13 rue de l'Ancienne Comédie,"48.85375581057431,2.3390958085656166"
27,Ippudo Saint-Germain,4.0,112,48.853198,2.337687,Ramen,14 rue Grégoire de Tours,"48.85375581057431,2.3390958085656166"
28,Ze Kitchen Galerie,4.0,206,48.85502,2.3412099,"French, Pan Asian",4 rue des Grands Augustins,"48.85375581057431,2.3390958085656166"
29,Huguette,4.0,66,48.8532753282413,2.3370290000000002,Seafood,81 rue de Seine,"48.85375581057431,2.3390958085656166"
30,Le Christine,4.0,87,48.854343,2.340276,French,1 rue Christine,"48.85375581057431,2.3390958085656166"
31,L'Epigramme,4.5,34,48.852558,2.340719,French,9 rue de l'Eperon,"48.85375581057431,2.3390958085656166"
32,Fajitas,4.0,163,48.855580100000005,2.3400906000000004,Mexican,15 rue Dauphine,"48.85375581057431,2.3390958085656166"
33,Le Bistrot d'Henri,4.5,130,48.852067,2.334431,French,16 rue Princesse,"48.85375581057431,2.3390958085656166"
34,Les Antiquaires,4.5,429,48.8580664639432,2.3282369706709902,Bistros,13 rue du Bac,"48.85375581057431,2.3390958085656166"
35,Huitrerie Régis,4.5,94,48.852768,2.336005,Seafood,3 rue de Montfaucon,"48.85375581057431,2.3390958085656166"
36,Le Bistro du Périgord,4.5,366,48.849809220151904,2.34515282327701,Bistros,71 rue Saint-Jacques,"48.85375581057431,2.3390958085656166"
37,La Grande Cremerie,4.5,34,48.853398816452,2.33779953372959,"Wine Bars, French",8 rue Grégoire-de-Tours,"48.85375581057431,2.3390958085656166"
38,Kodawari Ramen,4.0,82,48.85467,2.33806,Ramen,29 rue Mazarine,"48.85375581057431,2.3390958085656166"
39,The Moose,4.0,230,48.8518,2.3377,"Restaurants, Sports Bars",16 rue des Quatre Vents,"48.85375581057431,2.3390958085656166"
40,L'Aller Retour,4.5,78,48.865353000000006,2.363151,"Wine Bars, Steakhouses",5 rue Charles François Dupuis,"48.867872484749,2.3648982158072"
41,Inaro,4.5,85,48.868423,2.361196,"Wine Bars, Tapas/Small Plates, Breakfast & Brunch",38 rue René Boulanger,"48.867872484749,2.3648982158072"
42,L'îlot,4.5,64,48.864784240722706,2.3633019924163796,Seafood,4 rue de la Corderie,"48.867872484749,2.3648982158072"
43,Les Parigots,4.0,79,48.86926,2.36183,"Bars, Brasseries",5 rue Château d'eau,"48.867872484749,2.3648982158072"
44,The Beast,4.0,86,48.86773,2.35969,"American (Traditional), Barbeque",27 rue Meslay,"48.867872484749,2.3648982158072"
45,Ossek Garden,4.0,95,48.86646,2.36816,Korean,14 rue Rampon,"48.867872484749,2.3648982158072"
46,Robert et Louise,4.0,345,48.859081,2.359435,"French, Steakhouses",64 rue Vieille du Temple,"48.867872484749,2.3648982158072"
47,Ober Mamma,4.5,292,48.86446,2.37018,"Pizza, Italian, Cocktail Bars",107 boulevard Richard Lenoir,"48.867872484749,2.3648982158072"
48,Chez Imogène,4.5,103,48.86545,2.36856,Creperies,25 rue Jean Pierre Timbaud,"48.867872484749,2.3648982158072"
49,Pain Vin Fromages,4.5,257,48.860525,2.3544389999999997,Fondue,3 rue Geoffroy-l'Angevin,"48.867872484749,2.3648982158072"
50,Lavomatic,4.0,77,48.868471963621595,2.36200138194357,"Cocktail Bars, Tapas/Small Plates, Wine Bars",30 rue René Boulanger,"48.867872484749,2.3648982158072"
51,Aux Péchés Normands,5.0,54,48.86813,2.3654,"Bakeries, Caterers, Patisserie/Cake Shop",9 rue du faubourg du Temple,"48.867872484749,2.3648982158072"
52,Siseng,4.5,161,48.872279999999996,2.3650599999999997,"Burgers, Pan Asian",82 quai de Jemmapes,"48.867872484749,2.3648982158072"
53,La Marine,3.5,132,48.870604,2.36533366888659,French,55bis quai de Valmy,"48.867872484749,2.3648982158072"
54,Umami Matcha Café,4.0,51,48.86654,2.36353,"Coffee & Tea, Breakfast & Brunch, Delicatessen",22 rue Béranger,"48.867872484749,2.3648982158072"
55,Co Ba Saigon,5.0,19,48.8659652,2.365558,Vietnamese,48 boulevard du Temple,"48.867872484749,2.3648982158072"
56,L'Epicerie Musicale,4.5,28,48.8706530985989,2.36546493890072,"Italian, Convenience Stores, Breakfast & Brunch",55 bis quai de Valmy,"48.867872484749,2.3648982158072"
57,Le Chateaubriand,4.0,258,48.86936,2.37133,French,129 avenue Parmentier,"48.867872484749,2.3648982158072"
58,Shake n' Smash,4.5,34,48.866808,2.361149,Cocktail Bars,87 rue de Turbigo,"48.867872484749,2.3648982158072"
59,Blue Valentine,4.5,29,48.867432,2.370238,French,13 rue de la Pierre Levée,"48.867872484749,2.3648982158072"
60,Le Comptoir de la Gastronomie,4.5,1228,48.8645157999652,2.34540185646608,French,34 rue Montmartre,"48.856451985395786,2.334851883351803"
63,Le Calife,4.5,95,48.858320500000005,2.3346584,French,Port des Saints Pères,"48.856451985395786,2.334851883351803"
64,Le Relais de l'Entrecôte,4.0,485,48.854690000000005,2.3329,Steakhouses,20 rue Saint Benoît,"48.856451985395786,2.334851883351803"
66,Galette Café,4.5,113,48.856429999999996,2.33153,Creperies,2 rue de l'Université,"48.856451985395786,2.334851883351803"
71,L'Atelier de Joël Robuchon,4.0,396,48.8568107229545,2.32785068883627,"French, Modern European",5 rue de Montalembert,"48.856451985395786,2.334851883351803"
72,Le Restaurant,4.5,36,48.85635,2.33524,"French, Breakfast & Brunch",13 rue des Beaux-Arts,"48.856451985395786,2.334851883351803"
73,Eggs & Co,4.5,381,48.853123,2.331244,Breakfast & Brunch,11 rue Bernard Palissy,"48.856451985395786,2.334851883351803"
74,Chez Papa Jazz Club,4.5,47,48.8553886,2.3334401000000002,"Jazz & Blues, French",3 rue Saint-Benoît,"48.856451985395786,2.334851883351803"
75,Café Louise,4.0,102,48.853878376742,2.3321086257314,"Cafes, Brasseries",155 bd Saint Germain,"48.856451985395786,2.334851883351803"
76,Au Pied de Fouet,4.0,71,48.85542,2.33333,French,3 rue Saint Benoît,"48.856451985395786,2.334851883351803"
78,Ladurée,4.0,314,48.855596899999995,2.334102,"Tea Rooms, Macarons, Patisserie/Cake Shop",21 rue Bonaparte,"48.856451985395786,2.334851883351803"
79,La Palette,3.0,94,48.855432,2.336862,French,43 rue de Seine,"48.856451985395786,2.334851883351803"
80,Le Petit Canard,4.5,201,48.880165999999996,2.337314,French,19 rue Henri Monnier,"48.87929591733507,2.3373600840568547"
81,Pink Mamma,4.0,310,48.88187,2.3346,"Steakhouses, Barbeque, Italian",20 bis rue de Douai,"48.87929591733507,2.3373600840568547"
82,Le Pantruche,4.5,78,48.88046,2.3402,French,3 rue Victor Massé,"48.87929591733507,2.3373600840568547"
83,Buvette Gastrothèque,4.0,126,48.8804470273044,2.33758428078072,"French, Wine Bars",28 rue Henri Monnier,"48.87929591733507,2.3373600840568547"
84,Les Canailles,4.5,35,48.8792768,2.3345898999999997,French,25 Rue La Bruyère,"48.87929591733507,2.3373600840568547"
85,The Frog & Underground,4.5,44,48.871088,2.343115,"Pubs, American (Traditional), Brasseries",176 rue Montmartre,"48.87929591733507,2.3373600840568547"
86,ASPIC,5.0,26,48.87918,2.34367,French,24 rue de la Tour d'Auvergne,"48.87929591733507,2.3373600840568547"
87,La Table des Anges,4.5,31,48.88102,2.3401,"French, Bistros, Brasseries",66 rue des Martyrs,"48.87929591733507,2.3373600840568547"
88,Al Caratello,4.5,222,48.885237,2.335898,Italian,5 rue Audran,"48.87929591733507,2.3373600840568547"
89,le 23 Clauzel,4.0,28,48.879257,2.337556,French,23 rue Clauzel,"48.87929591733507,2.3373600840568547"
90,Puce,5.0,14,48.880490700315896,2.33468323306787,"Cafes, Tapas Bars, Gastropubs",1 rue Chaptal,"48.87929591733507,2.3373600840568547"
91,Maison Landemaine,4.5,25,48.87832,2.33975,"Bakeries, Salad, Sandwiches",26 rue des Martyrs,"48.87929591733507,2.3373600840568547"
92,Le Bon Georges,4.5,58,48.877657,2.337197,Bistros,45 rue Saint-Georges,"48.87929591733507,2.3373600840568547"
93,Lulu White,4.5,81,48.88165,2.33745,Cocktail Bars,12 rue Frochot,"48.87929591733507,2.3373600840568547"
94,Café Marlette,4.0,67,48.880275,2.339808,"Bakeries, Breakfast & Brunch",51 rue des Martyrs,"48.87929591733507,2.3373600840568547"
95,Clasico Argentino,4.0,18,48.8803859159267,2.33761990959202,"Argentine, Ice Cream & Frozen Yogurt, Latin American",22 rue Henry Monnier,"48.87929591733507,2.3373600840568547"
96,Le Basilic,4.0,167,48.886,2.33428,French,33 rue Lepic,"48.87929591733507,2.3373600840568547"
97,Ito Izakaya,4.0,25,48.8805719,2.3350294,"Japanese, Tapas Bars, Pan Asian",4 rue Pierre Fontaine,"48.87929591733507,2.3373600840568547"
98,The Hardware Société,4.5,196,48.88688,2.3445299,"Coffee & Tea, Breakfast & Brunch, Australian",10 rue Lamarck,"48.87929591733507,2.3373600840568547"
99,Le Potager du Père Thierry,4.5,454,48.884476,2.341335,French,16 rue des Trois Frères,"48.87929591733507,2.3373600840568547"
100,Septime,4.5,146,48.85355,2.380665,Modern European,80 rue de Charonne,"48.855907555969,2.3925706744194"
101,Clamato,4.5,96,48.85357,2.38037,"Seafood, French",80 rue Charonne,"48.855907555969,2.3925706744194"
102,L'Echoppe de Paris,4.5,50,48.853963,2.387988,"Burgers, Bistros",16 rue Léon Frot,"48.855907555969,2.3925706744194"
103,Fulgurances l'Adresse,4.5,21,48.852939899999996,2.3898799,French,10 rue Alexandre Dumas,"48.855907555969,2.3925706744194"
104,Le Piston Pelican,4.0,24,48.85673,2.39563,"Bistros, Fish & Chips",15 rue de Bagnolet,"48.855907555969,2.3925706744194"
105,Cimetière du Père Lachaise,4.5,258,48.859885999999996,2.390963,"Funeral Services & Cemeteries, Local Flavor",16 rue du Repos,"48.855907555969,2.3925706744194"
106,Waly-Fay,4.0,86,48.854577902096004,2.3816630237536,African,6 rue Godefroy Cavaignac,"48.855907555969,2.3925706744194"
107,La Table de Claire,4.0,10,48.8560283,2.388416,French,30 rue Emile Lepeu,"48.855907555969,2.3925706744194"
108,Louie Louie,4.5,45,48.8534999,2.3803,"Pizza, Cocktail Bars",78 rue de Charonne,"48.855907555969,2.3925706744194"
109,Auciel,4.5,40,48.854375,2.383591,"Chinese, Hot Pot",97 rue de Charonne,"48.855907555969,2.3925706744194"
110,Café d'Albert,5.0,4,48.85609,2.3944,"Lounges, French",109 boulevard de Charonne,"48.855907555969,2.3925706744194"
111,Le Siffleur de Ballons,4.5,45,48.84965,2.38117,"Bistros, Wine Bars",34 rue de Citeaux,"48.855907555969,2.3925706744194"
112,La Fine Mousse,4.5,99,48.86487,2.381824,Beer Bar,6 avenue Jean Aicard,"48.855907555969,2.3925706744194"
113,Chez Troquette,5.0,12,48.85866,2.3833900000000003,French,1 rue Saint-Maur,"48.855907555969,2.3925706744194"
114,Mokonuts,5.0,31,48.850763420373106,2.38146599382162,"Cafes, Bakeries",5 rue Saint-Bernard,"48.855907555969,2.3925706744194"
115,Les Mondes Bohèmes,4.0,50,48.853884,2.399349,"Bars, French",31 rue des Vignoles,"48.855907555969,2.3925706744194"
116,L'Ebauchoir,4.0,127,48.849860429523,2.3811310000000003,French,43-45 rue de Citeaux,"48.855907555969,2.3925706744194"
117,Le Réservoir,3.5,112,48.851451399999995,2.3806465,"Bars, Music Venues, French",16 rue de la Forge Royale,"48.855907555969,2.3925706744194"
119,Le Ciel,4.5,7,48.853201203834494,2.39042289555073,"French, Bars",17 rue Alexandre Dumas,"48.855907555969,2.3925706744194"
120,Bar & Beer Bercy,4.5,9,48.839431,2.38783,Beer Bar,4 rue du Charolais,"48.840855311763,2.3875549435616"
121,L'Alchimiste,4.0,46,48.843173344452,2.3854776755441,"French, Brasseries",181 rue de Charenton,"48.840855311763,2.3875549435616"
122,Il Goto,4.0,10,48.840868,2.3872720000000003,Italian,212 bis rue de Charenton,"48.840855311763,2.3875549435616"
123,Le Touareg,4.5,11,48.8397217,2.3885688,"Moroccan, Mediterranean, African",228 rue Charenton,"48.840855311763,2.3875549435616"
124,Le Janissaire,4.0,83,48.841635708226,2.3917643861582003,Turkish,22-24 allée Vivaldi,"48.840855311763,2.3875549435616"
125,Les Caves de Reuilly,4.5,11,48.839364,2.39073,"Wine Bars, Champagne Bars, Beer Bar",11 boulevard de Reuilly,"48.840855311763,2.3875549435616"
126,La Feria,4.0,41,48.8438,2.38824,"Spanish, Tapas Bars",25 Rue Montgallet,"48.840855311763,2.3875549435616"
127,Le Calbar,4.5,100,48.84853,2.37564,Cocktail Bars,82 rue de Charenton,"48.840855311763,2.3875549435616"
128,L'Encrier,4.0,64,48.848259999999996,2.3740099999999997,French,55 rue Traversière,"48.840855311763,2.3875549435616"
130,Yeko,4.0,27,48.8402,2.39242,"Japanese, Sushi Bars",154 ave Daumesnil,"48.840855311763,2.3875549435616"
131,Les Jardins de Mandchourie,4.0,42,48.841770200000006,2.3905699,Chinese,32-34 allée Vivaldi,"48.840855311763,2.3875549435616"
133,L'Auberge Aveyronnaise,4.0,113,48.834770899999995,2.38599,French,40 Rue Gabriel Lamé,"48.840855311763,2.3875549435616"
134,Chez Julia et Ryan,5.0,1,48.8411364,2.3873437,Bistros,40 rue Baulant,"48.840855311763,2.3875549435616"
135,Maguey,4.5,21,48.84748,2.37737,French,99 rue de Charenton,"48.840855311763,2.3875549435616"
136,Le Lys d'Or,4.0,59,48.845553,2.3836459999999997,Chinese,2 rue Chaligny,"48.840855311763,2.3875549435616"
137,Chez Prosper,3.5,278,48.848554304744,2.3983338856896,Bistros,7 avenue du Trône,"48.840855311763,2.3875549435616"
138,Le Baron Rouge,4.5,79,48.849492,2.377314,Wine Bars,1 rue Théophile Roussel,"48.840855311763,2.3875549435616"
139,Au Trou Gascon,4.0,35,48.839059999999996,2.3942,French,40 rue Taine,"48.840855311763,2.3875549435616"
141,La Petite Chaise,4.0,73,48.8538,2.32749,French,36 rue Grenelle,"48.851296433665276,2.325061820447445"
142,L'Epi Dupin,4.0,115,48.849779999999996,2.3254,Bistros,11 rue Dupin,"48.851296433665276,2.325061820447445"
145,L'Arpège,4.0,226,48.855753,2.316982,French,84 rue de Varenne,"48.851296433665276,2.325061820447445"
148,Le Pain Quotidien,4.0,61,48.85386,2.32417,"Breakfast & Brunch, Bakeries, Coffee & Tea",25 rue de Varenne,"48.851296433665276,2.325061820447445"
150,Musée d’Orsay,4.5,892,48.860407225241204,2.32502393267818,Museums,1 rue de la Légion d'Honneur,"48.851296433665276,2.325061820447445"
151,Café Cassette,4.0,66,48.851079999999996,2.33069,"Breakfast & Brunch, French, Wine Bars",73 rue de Rennes,"48.851296433665276,2.325061820447445"
156,Angelina,4.5,43,48.853175,2.3236599,"Desserts, Patisserie/Cake Shop",108 rue du Bac,"48.851296433665276,2.325061820447445"
157,Marcel,3.5,34,48.8517,2.32293,"Breakfast & Brunch, American (Traditional), British",15 rue de Babylone,"48.851296433665276,2.325061820447445"
158,Poilâne,4.0,107,48.8513,2.32908,Bakeries,8 rue du Cherche-Midi,"48.851296433665276,2.325061820447445"
159,Atelier Vivanda,4.0,14,48.850667914812895,2.32815251238606,"Barbeque, French",20 rue du Cherche-Midi,"48.851296433665276,2.325061820447445"
162,Shiso Burger,4.5,92,48.853390000000005,2.3453,"Burgers, Asian Fusion, American (Traditional)",21 quai Saint-Michel,"48.851518815017,2.3436703160405"
163,Au Père Louis,4.0,264,48.848966,2.3403490000000002,"Wine Bars, French",38 rue Monsieur le Prince,"48.851518815017,2.3436703160405"
164,Le Petit Châtelet,4.0,136,48.852616,2.34702,French,39 rue de la Bûcherie,"48.851518815017,2.3436703160405"
165,Loulou,4.0,155,48.851192,2.344806,"Burgers, Cafes, Australian",90 boulevard Saint-Germain,"48.851518815017,2.3436703160405"
166,Le Porte Pot,4.5,134,48.85134,2.34452,"Wine Bars, Bistros",14 rue Boutebrie,"48.851518815017,2.3436703160405"
171,Odette,4.5,88,48.852063,2.346507,"Tea Rooms, Patisserie/Cake Shop",77 rue Galande,"48.851518815017,2.3436703160405"
172,Shakespeare and Company,4.5,330,48.852658704771,2.3469621526521,"Bookstores, Cafes",37 rue de la Bûcherie,"48.851518815017,2.3436703160405"
173,Les Papilles,4.5,254,48.844609999999996,2.34174,"Wine Bars, Bistros",30 rue Gay-Lussac,"48.851518815017,2.3436703160405"
174,Sourire,4.5,32,48.851109,2.347656,"Tapas Bars, French",27 rue Galande,"48.851518815017,2.3436703160405"
175,Maison de la Lozère,4.5,34,48.852613,2.3430142000000003,French,4 rue Hautefeuille,"48.851518815017,2.3436703160405"
177,Aux Trois Mailletz,4.0,64,48.852596999999996,2.346612,"French, Cabaret, Piano Bars",56 rue Galande,"48.851518815017,2.3436703160405"
178,Comme Chai Toi,4.5,44,48.85188,2.34917,"Wine Bars, French",13 quai de Montebello,"48.851518815017,2.3436703160405"
179,Breizh Café,4.5,58,48.851586,2.33885,"Creperies, Cafes",1 rue de l'Odéon,"48.851518815017,2.3436703160405"
180,Le Hide,4.5,226,48.8763,2.2940099999999997,French,10 Rue Gén Lanrezac,"48.881973298352,2.301132157445"
181,Maison Rostang,4.5,56,48.8814136,2.2984913,French,20 rue Rennequin,"48.881973298352,2.301132157445"
182,Il Etait une Oie dans le Sud Ouest,4.5,38,48.88145,2.2991,"French, French Southwest",8 Rue Gustave Flaubert,"48.881973298352,2.301132157445"
183,Les Messugues,4.5,13,48.880122248126,2.3032613265072097,French,8 rue Léon Jost,"48.881973298352,2.301132157445"
184,Le Bistrot d'à Côté Flaubert,4.0,25,48.88143,2.29867,French,10 rue Gustave Flaubert,"48.881973298352,2.301132157445"
185,Zino,4.0,28,48.8842865,2.3001673,Italian,97 avenue de Villiers,"48.881973298352,2.301132157445"
186,Coretta,4.5,41,48.88966,2.31628,Bistros,151bis rue Cardinet,"48.881973298352,2.301132157445"
187,Taillevent,4.5,92,48.87428,2.3024299999999998,French,15 rue Lamenais,"48.881973298352,2.301132157445"
188,Caffé Caesar,4.5,60,48.8752983,2.2939830000000003,Italian,4 avenue Carnot,"48.881973298352,2.301132157445"
190,L'Aligot,5.0,13,48.882309899999996,2.29584,Auvergnat,73 avenue Niel,"48.881973298352,2.301132157445"
191,L'Arc de Triomphe,4.5,688,48.8738256014877,2.29502221103758,Landmarks & Historical Buildings,Place de l'Étoile,"48.881973298352,2.301132157445"
192,La Marée,4.0,49,48.877449,2.300583,Seafood,1 rue Daru,"48.881973298352,2.301132157445"
193,Fanfan,4.5,27,48.8801154,2.2943694,"French, Asian Fusion",18 rue Bayen,"48.881973298352,2.301132157445"
194,Bistrot d'Yves,4.5,8,48.8822,2.3044700000000002,French,33 rue Cardinet,"48.881973298352,2.301132157445"
195,La Famiglia di Rebellato,4.5,15,48.882401308135606,2.29636790615627,"Italian, Pizza",73 bis avenue Niel,"48.881973298352,2.301132157445"
196,Little Nonna,4.5,34,48.87957,2.294911,"Pizza, Gluten-Free",12 avenue Niel,"48.881973298352,2.301132157445"
197,Le Petit Villiers,3.5,51,48.8838078,2.3047215,French,75 avenue de Villiers,"48.881973298352,2.301132157445"
198,Apicius,4.5,82,48.873629,2.307616,French,20 rue d'Artois,"48.881973298352,2.301132157445"
199,Samesa,4.5,32,48.87643,2.29572,Italian,13 rue Brey,"48.881973298352,2.301132157445"
201,Oresto,3.5,51,48.881586,2.286145,"French, Bars, Modern European",55 boulevard Gouvion Saint-Cyr,"48.88287775178599,2.287667370814871"
202,Le Ballon des Ternes,3.5,50,48.880597630898,2.2854221949609,French,103 avenue Ternes,"48.88287775178599,2.287667370814871"
203,Le Relais de Venise - l'Entrecôte,4.0,289,48.878045,2.285062,"Desserts, Barbeque",271 boulevard Pereire,"48.88287775178599,2.287667370814871"
204,La Casa di Sergio,4.0,46,48.879607702442996,2.2893595989497997,Italian,77 ave Ternes,"48.88287775178599,2.287667370814871"
205,Da Franco,4.0,16,48.881331521726295,2.28611002827643,Italian,21 rue Ruhmkorff,"48.88287775178599,2.287667370814871"
207,Trattoria di Bellagio,3.5,46,48.88046,2.28556,"Italian, Pizza",101 avenue des Ternes,"48.88287775178599,2.287667370814871"
208,Le Franc Tireur,4.0,50,48.8790379940633,2.2910813852846403,Brasseries,34 rue d'Armaillé,"48.88287775178599,2.287667370814871"
209,New York à Paris,4.0,9,48.8816092,2.2887842999999997,"Burgers, French",33 rue Guersant,"48.88287775178599,2.287667370814871"
211,La Maison,4.0,86,48.87805,2.2883,"Bistros, Brasseries",28 place Saint Ferdinand,"48.88287775178599,2.287667370814871"
212,Léon de Bruxelles,4.0,49,48.8787382,2.2845456000000004,"Seafood, Belgian",95 boulevard Gouvion Saint Cyr,"48.88287775178599,2.287667370814871"
214,Paris XVII,4.5,19,48.882268835579005,2.2882651718518,French,41 rue Guersant,"48.88287775178599,2.287667370814871"
217,L'Ambre Bar,4.5,30,48.8787095,2.2877118999999997,Cocktail Bars,29 rue Brunel,"48.88287775178599,2.287667370814871"
218,UC-61,4.5,24,48.8766231,2.2939537999999997,Cocktail Bars,4 rue de l'Arc-de-Triomphe,"48.88287775178599,2.287667370814871"
219,Gabylou,4.5,19,48.87793,2.2915799999999997,French,15 rue d'Armaillé,"48.88287775178599,2.287667370814871"
223,Radiodays,4.5,41,48.871590000000005,2.36728,"Coffee & Tea, Breakfast & Brunch, Patisserie/Cake Shop",15 rue Alibert,"48.871044051984,2.3661044619878"
224,Fric-Frac,4.5,28,48.872440999999995,2.3640060000000003,"French, Sandwiches",79 quai de Valmy,"48.871044051984,2.3661044619878"
226,le cambodge,4.0,149,48.8721809678125,2.36618243157864,"Cambodian, Pan Asian, Vegetarian",10 avenue Richerand,"48.871044051984,2.3661044619878"
227,Du Pain et des Idées,4.5,474,48.8712,2.3628999,Bakeries,34 rue Yves Toudic,"48.871044051984,2.3661044619878"
228,Holybelly 19,4.5,300,48.87213,2.36078,"Breakfast & Brunch, Cafes, Desserts",19 rue Lucien Sampaix,"48.871044051984,2.3661044619878"
229,Le Verre Volé,4.0,110,48.87284429772549,2.36354442418734,"Wine Bars, Bistros",67 rue Lancry,"48.871044051984,2.3661044619878"
230,Two Stories,5.0,9,48.8714683,2.3657338,"American (Traditional), Cajun/Creole",72 quai de Jemmapes,"48.871044051984,2.3661044619878"
231,Le Bichat,4.5,80,48.8697,2.36916,"Cafes, Breakfast & Brunch",11 rue Bichat,"48.871044051984,2.3661044619878"
232,Le Comptoir Général,4.0,211,48.87215,2.36502,"Venues & Event Spaces, Cocktail Bars",80 quai de Jemmapes,"48.871044051984,2.3661044619878"
234,Le Petit Cambodge,3.5,109,48.871673,2.368088,"Cambodian, Pan Asian, Vegetarian",20 rue Alibert,"48.871044051984,2.3661044619878"
235,Piccoli Cugini,4.0,63,48.87316,2.36187,"Italian, Pizza",34 rue des Vinaigriers,"48.871044051984,2.3661044619878"
236,Holybelly 5,4.5,275,48.871021999999996,2.359819,"Breakfast & Brunch, Coffee & Tea",5 rue Lucien Sampaix,"48.871044051984,2.3661044619878"
237,Les Enfants Perdus,4.0,132,48.874390000000005,2.3620099999999997,"French, Cocktail Bars",9 rue des Recollets,"48.871044051984,2.3661044619878"
239,Tien Hiang,4.0,67,48.87025,2.36895,"Vegetarian, Vegan, Pan Asian",14 rue Bichat,"48.871044051984,2.3661044619878"
241,Le Soufflé,4.0,302,48.86645,2.32647,French,36 rue du Mont Thabor,"48.874422773426545,2.3284685611724854"
242,Lazare,4.0,70,48.876683,2.325271,"French, Brasseries",Parvis de la Gare Saint-Lazare,"48.874422773426545,2.3284685611724854"
243,Verjus,4.5,153,48.866353000000004,2.337373,Modern European,52 rue de Richelieu,"48.874422773426545,2.3284685611724854"
244,Pascade,4.5,79,48.870597,2.3312,French,14 rue Daunou,"48.874422773426545,2.3284685611724854"
246,La Maison de la Truffe,4.5,100,48.870740000000005,2.3239899,French,19 place de la Madeleine,"48.874422773426545,2.3284685611724854"
247,Café Pouchkine,4.0,58,48.87362,2.32833,Cafes,64 bd Haussman,"48.874422773426545,2.3284685611724854"
248,Pompei,4.5,65,48.872433,2.3241669999999996,"Italian, Pizza",19 rue de Castellane,"48.874422773426545,2.3284685611724854"
249,Le Madeleine C,4.5,24,48.872216200000004,2.3252667999999996,French,5 rue Castellane,"48.874422773426545,2.3284685611724854"
250,Pavillon Ledoyen,4.5,73,48.8661071818398,2.31645151287496,French,8 avenue Dutuit,"48.874422773426545,2.3284685611724854"
251,La Pâte à Nouilles,4.0,35,48.87238,2.3250799,Chinese,8 rue de Castellane,"48.874422773426545,2.3284685611724854"
252,Chez Monsieur,4.5,88,48.868776389017704,2.32504606246948,French,11 rue Chevalier de Saint-George,"48.874422773426545,2.3284685611724854"
253,Casa Cosa,4.0,40,48.8756646984336,2.33133684843779,"Pizza, Italian",30 rue de Mogador,"48.874422773426545,2.3284685611724854"
254,Ellsworth,4.5,118,48.86558,2.3368900000000004,"Wine Bars, French",34 rue de Richelieu,"48.874422773426545,2.3284685611724854"
255,Gambino,4.5,229,48.86736,2.33298,Italian,6 rue Gomboust,"48.874422773426545,2.3284685611724854"
256,Bistrot Richelieu,4.0,195,48.866217999999996,2.337011,"French, Breakfast & Brunch",45 rue de Richelieu,"48.874422773426545,2.3284685611724854"
257,Le Clos Bourguignon,4.0,147,48.872820000000004,2.3282599999999998,Brasseries,39 rue de Caumartin,"48.874422773426545,2.3284685611724854"
258,Ferdi,4.0,147,48.8663,2.3267,"French, Spanish, Seafood",32 rue du Mont Thabor,"48.874422773426545,2.3284685611724854"
259,Opéra National de Paris - Palais Garnier,4.5,246,48.8719444,2.3316667,"Landmarks & Historical Buildings, Opera & Ballet",8 rue Scribe,"48.874422773426545,2.3284685611724854"
260,La Closerie des Lilas,4.0,140,48.8397,2.33655,"Brasseries, Bars",171 bd Montparnasse,"48.837525839067,2.3360354080796"
261,Le Bistrot des Campagnes,4.5,127,48.840959999999995,2.3307,Bistros,6 rue Léopold Robert,"48.837525839067,2.3360354080796"
262,Contre Allée,4.5,23,48.83695,2.33487,French,83 ave Denfert-Rochereau,"48.837525839067,2.3360354080796"
264,Cantinella,4.5,19,48.836984,2.3384442,"Italian, Pizza",30 rue du Faubourg Saint-Jacques,"48.837525839067,2.3360354080796"
265,Académie de la Bière,3.5,130,48.839254013553294,2.33911796103834,Beer Bar,88 bis bd Port Royal,"48.837525839067,2.3360354080796"
266,Le Bistro V,5.0,24,48.83768,2.34622,"Bistros, French",56 bd de Port-Royal,"48.837525839067,2.3360354080796"
267,L'Estrapade,5.0,46,48.84479,2.34662,French,15 rue de l'Estrapade,"48.837525839067,2.3360354080796"
268,My Noodles,4.5,48,48.8415,2.3317199,Chinese,129 boulevard du Montparnasse,"48.837525839067,2.3360354080796"
269,Ducky's,4.5,22,48.840540000000004,2.33462,"Dim Sum, Pan Asian",157 boulevard du Montparnasse,"48.837525839067,2.3360354080796"
270,Harmony Café,4.5,8,48.838612,2.3397032,"French, Wine Bars",117 bd Port-Royal,"48.837525839067,2.3360354080796"
271,La Vie d'Ange,4.5,38,48.832570000000004,2.3378099999999997,"French, Wine Bars",41 bd Saint-Jacques,"48.837525839067,2.3360354080796"
272,Au P'tit Grec,4.5,220,48.84278,2.3496,"Creperies, Sandwiches",68 rue Mouffetard,"48.837525839067,2.3360354080796"
273,Il Etait un Square,5.0,46,48.830971125314704,2.3479810699827204,"Burgers, French",54 rue Corvisart,"48.837525839067,2.3360354080796"
274,Les Catacombes de Paris,4.0,433,48.833838,2.332422,"Local Flavor, Museums, Landmarks & Historical Buildings",1 avenue du Colonel Henri Rol-Tanguy,"48.837525839067,2.3360354080796"
275,Le Timbre,4.5,59,48.84417,2.32987,French,3 rue Sainte Beuve,"48.837525839067,2.3360354080796"
276,La Petite Bretonne,4.5,30,48.843434,2.34943,Creperies,48 rue Mouffetard,"48.837525839067,2.3360354080796"
277,La Truffière,4.0,75,48.84448,2.348821,French,4 rue Blainville,"48.837525839067,2.3360354080796"
278,Bullier,3.0,24,48.839560999999996,2.336374,Brasseries,22 avenue de l'Observatoire,"48.837525839067,2.3360354080796"
279,Arrivederci,4.5,14,48.84175,2.34349,"Pizza, Italian",47 rue Gay-Lussac,"48.837525839067,2.3360354080796"
281,Brasserie O'Neil,4.0,100,48.85185,2.33366,"Brasseries, Pubs",20 rue des Canettes,"48.85165383178419,2.3308077827095985"
291,Evi Evane,4.5,47,48.8519,2.33428,"French, Greek",10 rue Guisarde,"48.85165383178419,2.3308077827095985"
292,Ralph's,4.0,86,48.854209999999995,2.33072,"American (Traditional), Burgers, Cocktail Bars",173 boulevard Saint-Germain,"48.85165383178419,2.3308077827095985"
296,Les Deux Magots,3.5,377,48.85389,2.33336,Cafes,6 place Saint-Germain des Prés,"48.85165383178419,2.3308077827095985"
298,La Boussole,4.0,146,48.8519089,2.3342589,French,12 rue Guisarde,"48.85165383178419,2.3308077827095985"
311,Noglu,4.5,27,48.855080753116894,2.3241525515914,"Breakfast & Brunch, Gluten-Free",69 rue de Grenelle,"48.853147816545,2.3263905197382"
312,Aux Prés,4.0,63,48.85275,2.33046,"Bistros, French",27 rue du Dragon,"48.853147816545,2.3263905197382"
315,Musée du Louvre,4.5,2015,48.86206,2.334521,Museums,Place du Carrousel,"48.853147816545,2.3263905197382"
320,Le Temps des Cerises,4.5,369,48.852569,2.364184,"French, Bistros, Cafes",31 rue de la Cerisaie,"48.84389286531899,2.3519663885235786"
323,Quartier Latin,4.5,15,48.84499,2.3491400000000002,Italian,1 Rue Mouffetard,"48.84389286531899,2.3519663885235786"
327,Au Doux Raisin,4.5,50,48.8458648,2.3491279,"French, Wine Bars",29 rue Descartes,"48.84389286531899,2.3519663885235786"
329,Le Resto,4.5,15,48.843977,2.348041,French,8 rue Tournefort,"48.84389286531899,2.3519663885235786"
331,Dose,4.5,70,48.842209999999994,2.34983,Coffee & Tea,73 rue Mouffetard,"48.84389286531899,2.3519663885235786"
333,Heureux Comme Alexandre,4.0,69,48.842849,2.348436,"Fondue, Barbeque",13 rue du Pot de Fer,"48.84389286531899,2.3519663885235786"
334,Hugo & Co,4.0,13,48.84518,2.352,French,48 rue Monge,"48.84389286531899,2.3519663885235786"
335,Mavrommatis,4.0,64,48.84055,2.35126,Greek,42 rue Daubenton,"48.84389286531899,2.3519663885235786"
336,Crazy Pasta,5.0,13,48.844588,2.348745,Italian,4 rue Blainville,"48.84389286531899,2.3519663885235786"
338,L'Antidote,4.0,38,48.845279999999995,2.34918,Pubs,45 rue Descartes,"48.84389286531899,2.3519663885235786"
339,Le Petit Pontoise,4.5,148,48.849884499999995,2.3520958999999997,Bistros,9 rue de Pontoise,"48.84389286531899,2.3519663885235786"
340,Le Petit Littré,4.5,35,48.845261,2.324004,French,16 rue Littré,"48.84708159081946,2.321374788880348"
341,Plume,4.5,19,48.848859999999995,2.3192,French,24 rue Pierre Leroux,"48.84708159081946,2.321374788880348"
342,Le Petit Verdot,4.5,15,48.84786,2.3235099999999997,French,75 rue du Cherche Midi,"48.84708159081946,2.321374788880348"
343,Nagoya,4.0,91,48.84425132615439,2.3220430873108198,Japanese,58 boulevard du Montparnasse,"48.84708159081946,2.321374788880348"
347,Joséphine chez Dumonet,4.0,133,48.845765,2.3198950000000003,Bistros,117 rue du Cherche-Midi,"48.84708159081946,2.321374788880348"
349,Domaine de Lintillac,4.0,42,48.84878,2.31845,French,20 rue Rousselet,"48.84708159081946,2.321374788880348"
350,Les Cèdres du Liban,4.0,45,48.84455,2.320291,"Lebanese, Halal, Barbeque",5 avenue du Maine,"48.84708159081946,2.321374788880348"
353,Le Vin en Bouche,4.5,15,48.848228999999996,2.3252040000000003,"French, Wine Bars",27 rue de l'Abbé-Grégoire,"48.84708159081946,2.321374788880348"
354,Au Comptoir Nippon,3.5,59,48.8446277,2.3203383,Japanese,3 avenue du Maine,"48.84708159081946,2.321374788880348"
355,D'Chez Eux,4.5,49,48.85309,2.3091,French,2 ave de Lowendal,"48.84708159081946,2.321374788880348"
356,Ciel de Paris,3.5,226,48.842182,2.322119,"Modern European, French",33 avenue du Maine,"48.84708159081946,2.321374788880348"
357,Gemini,4.0,17,48.8488701,2.3204008,Italian,83 Rue Vaneau,"48.84708159081946,2.321374788880348"
359,Le Bistrot Du Sud Ouest,4.0,18,48.84492,2.32139,French,39 bd Montparnasse,"48.84708159081946,2.321374788880348"
360,Bustronome,4.5,18,48.87276,2.2940270000000003,"French, Food Tours",2 avenue Kléber,"48.91039875761846,2.3851355910301213"
361,Yun Tian Lou,3.5,2,48.9105,2.38544,Pan Asian,54 Avenue République,"48.91039875761846,2.3851355910301213"
362,Le 53,5.0,1,48.910579999999996,2.38022,"Fast Food, Breakfast & Brunch, Tex-Mex",53 rue de la Commune de Paris,"48.91039875761846,2.3851355910301213"
363,Le Réfectoire - Foodtruck,4.5,12,48.856929779052706,2.3412001132965097,"Food Trucks, Burgers",,"48.91039875761846,2.3851355910301213"
364,Café Cacao,5.0,1,48.91902,2.39755,"Dance Clubs, African, Barbeque",95 rue Hélène Cochennec,"48.91039875761846,2.3851355910301213"
365,Macao,5.0,1,48.90782,2.3847099999999997,Pan Asian,137 Rue André Karman,"48.91039875761846,2.3851355910301213"
366,dupin duvin,3.0,1,48.912259000000006,2.384049,Restaurants,45 avenue victor-hugo,"48.91039875761846,2.3851355910301213"
367,New Soul Food,4.0,8,48.83012,2.3622400000000003,"Food Trucks, African, Caribbean",,"48.91039875761846,2.3851355910301213"
368,Sambola,4.0,1,48.907978,2.3902959999999998,"Brazilian, Bars",87 rue Henri Barbusse,"48.91039875761846,2.3851355910301213"
369,Coach jardin,5.0,3,48.8819885,2.1854501,"Gardeners, Parks, Landscape Architects or Designers",2 Marie Levasseur,"48.91039875761846,2.3851355910301213"
370,Pedra Alta,3.0,4,48.904272,2.3749540000000002,Portuguese,Rue de la Gare Zac Canal,"48.91039875761846,2.3851355910301213"
371,Kebab Pantin,3.0,1,48.901802813344794,2.3914547910332598,"Kebab, Turkish",64 avenue Jean Jaurès,"48.91039875761846,2.3851355910301213"
372,Les Oliviers,4.0,1,48.9131199,2.3815151,Restaurants,20 Rue Commune de Paris,"48.91039875761846,2.3851355910301213"
373,le petit basque,4.0,1,48.909879700000005,2.3793302000000005,Basque,68 rue de la Commune de Paris,"48.91039875761846,2.3851355910301213"
374,O Abrigo,5.0,1,48.9182567,2.3790746,Portuguese,54 Avenue Prés Roosevelt,"48.91039875761846,2.3851355910301213"
375,Smrity Mahal,5.0,1,48.9054,2.3936900000000003,"Indian, Pakistani",85 avenue Jean Jaurès,"48.91039875761846,2.3851355910301213"
376,L'Atelier du Pain,5.0,1,48.90388370000001,2.391611,"Bakeries, Sandwiches",144 avenue de la République,"48.91039875761846,2.3851355910301213"
377,Subway,3.0,1,48.903031755347,2.37435892723079,"Fast Food, Sandwiches",23 rue Madeleine Vionnet,"48.91039875761846,2.3851355910301213"
378,Comme Chez Maman,4.0,2,48.9029628,2.3835794999999997,Restaurants,6 Rue André Karman,"48.91039875761846,2.3851355910301213"
379,Boulangerie,1.0,1,48.9110608723562,2.37943181833061,Bakeries,120 bis ave Victor Hugo,"48.91039875761846,2.3851355910301213"
381,Coupi Bar,5.0,8,48.8210033285843,2.37003795581943,"Bubble Tea, Cafes, Sandwiches",48 avenue de la Porte d'Ivry,"48.81580226360801,2.376804985105991"
382,Lao Viet,4.0,42,48.82121,2.36816,"Vietnamese, Laotian, Thai",24 bd Masséna,"48.81580226360801,2.376804985105991"
383,Chinatown Olympiades,3.5,49,48.823667,2.365693,Chinese,44 avenue d'Ivry,"48.81580226360801,2.376804985105991"
384,Al Dabke,4.5,13,48.810958899999996,2.3838401,Lebanese,1 bis rue Robespierre,"48.81580226360801,2.376804985105991"
385,Bien Nang,4.5,3,48.81678,2.37637,Restaurants,97 Avenue Maurice Thorez,"48.81580226360801,2.376804985105991"
386,Pho Bida Vietnam,4.0,121,48.82427,2.36807,Vietnamese,36 rue Nationale,"48.81580226360801,2.376804985105991"
387,Siam@Siam,4.5,13,48.8235736080354,2.36591744719908,"Vietnamese, Thai, Chinese",Centre commercial Oslo,"48.81580226360801,2.376804985105991"
388,La Chine Masséna,3.5,35,48.820793,2.364861,Cantonese,113 place Vénétie,"48.81580226360801,2.376804985105991"
389,Tabac du vieux moulin,4.5,4,48.8179,2.37557,Restaurants,75 Avenue Maurice Thorez,"48.81580226360801,2.376804985105991"
390,Hoa Nam,3.5,34,48.82332,2.36543,"Sandwiches, Vietnamese",51 avenue d'Ivry,"48.81580226360801,2.376804985105991"
391,Giallo Limone,5.0,9,48.8104,2.3637599999999996,Italian,5 ave du Repos,"48.81580226360801,2.376804985105991"
392,Lao Chaleune,4.5,27,48.82424,2.37023,Laotian,29 rue Château des Rentiers,"48.81580226360801,2.376804985105991"
393,Pho 13,4.0,12,48.824317,2.3638049999999997,Vietnamese,66 avenue d'Ivry,"48.81580226360801,2.376804985105991"
394,Thieng Heng,4.0,57,48.823570000000004,2.3651299999999997,"Sandwiches, Vietnamese",50 avenue d'Ivry,"48.81580226360801,2.376804985105991"
396,Noodle Bar,3.5,15,48.823928,2.368045,Chinese,31 rue Nationale,"48.81580226360801,2.376804985105991"
397,Impérial Choisy,3.5,60,48.8220499,2.3631678,Cantonese,32 ave de Choisy,"48.81580226360801,2.376804985105991"
398,May Hong,4.5,8,48.8233346,2.3657144,"Vietnamese, Asian Fusion",44 avenue d'Ivry,"48.81580226360801,2.376804985105991"
399,Melinda,4.0,17,48.81909,2.36547,Chinese,30 avenue Porte de Choisy,"48.81580226360801,2.376804985105991"
400,La Salamandre,4.5,22,48.831369200000005,2.4756928,French,10 Boulevard Marne,"48.836022242886884,2.4708339950830287"
401,Le Relais,3.5,6,48.8358518,2.4726188,"French, Brasseries, Bistros",7 avenue Georges Clemenceau,"48.836022242886884,2.4708339950830287"
402,Le Jardin d'Agronomie Tropicale,4.0,6,48.834685,2.468384,Parks,45 bis avenue de la Belle Gabrielle,"48.836022242886884,2.4708339950830287"
403,Le Petit Machon,4.0,16,48.837521,2.484433,French,5 Rue Paul Bert,"48.836022242886884,2.4708339950830287"
404,Palais Royal de Nogent,3.5,4,48.83445,2.47264,Restaurants,5 Avenue Joinville,"48.836022242886884,2.4708339950830287"
405,La Bella Rosa,3.5,15,48.8357,2.47506,"Pizza, Italian",3 grande rue Charles de Gaulle,"48.836022242886884,2.4708339950830287"
406,Cyril Combescot,5.0,1,48.834369,2.4727933999999996,Bakeries,5 Avenue Joinville,"48.836022242886884,2.4708339950830287"
407,Jean-Paul Grissault,4.0,1,48.834369,2.4727933999999996,Butcher,5 Avenue Joinville,"48.836022242886884,2.4708339950830287"
408,Le Marrakech,3.5,6,48.83746,2.4773099999999997,Moroccan,20 bd Strasbourg,"48.836022242886884,2.4708339950830287"
409,Au Blé d'Or,3.0,8,48.835968551885,2.47507846548417,Bakeries,2 boulevard de Strasbourg,"48.836022242886884,2.4708339950830287"
410,Chez Gégène,2.5,19,48.829955,2.475072,"French, Dance Clubs",162 bis allée des Guinguettes,"48.836022242886884,2.4708339950830287"
411,Bowling Striky,4.0,2,48.829703,2.4748582000000003,"Bowling, Cocktail Bars, Pool Halls",162 quai de Polangis,"48.836022242886884,2.4708339950830287"
412,Val de Beauté,5.0,2,48.832514,2.477089,French,1 Avenue Val de Beauté,"48.836022242886884,2.4708339950830287"
413,L'Epi du Bois,4.5,3,48.8437432647116,2.4659237265586804,Bakeries,4 place Moreau David,"48.836022242886884,2.4708339950830287"
414,La Paloma,4.0,1,48.837022999999995,2.4836232999999996,"Restaurants, Pubs",Grande Place Charles-de-Gaulle,"48.836022242886884,2.4708339950830287"
416,Parc du Tremblay,3.5,5,48.82828189999999,2.4814043,"Stadiums & Arenas, Parks",11 boulevard des Alliés,"48.836022242886884,2.4708339950830287"
417,Côté Sushi,3.0,1,48.83654,2.48218,"Japanese, Peruvian, Sushi Bars",69 Grande rue Charles de Gaulle,"48.836022242886884,2.4708339950830287"
418,A La Bonne Fournée,3.5,2,48.8370217,2.4763102999999997,Bakeries,25 Boulevard Strasbourg,"48.836022242886884,2.4708339950830287"
419,La Leontine,4.0,1,48.8328018,2.47702,Bakeries,41 rue Victor Basch,"48.836022242886884,2.4708339950830287"
421,Jacob,4.5,4,48.8354366,2.2315812999999998,Burgers,209 rue Galliéni,"48.835583838706,2.2325500845909"
422,La Salle à Manger,4.0,14,48.8357196,2.2332099999999997,French,193-195 rue Gallieni,"48.835583838706,2.2325500845909"
423,Sarl Le Garde Manger,4.5,51,48.841551,2.219235,"French, Bistros",21 rue d'Orléans,"48.835583838706,2.2325500845909"
424,Home Sweet Home,4.5,14,48.831516799999996,2.2401865,"French, Beer Bar, Cocktail Bars",7 rue Heyrault,"48.835583838706,2.2325500845909"
425,Le Cap Seguin,3.5,48,48.833609100000004,2.2272382,French,Face au 24/26 quai Alphonse le Gallo,"48.835583838706,2.2325500845909"
427,Musée Albert Kahn,4.5,52,48.841359999999995,2.22748,"Botanical Gardens, Museums, Parks",14 rue du Port,"48.835583838706,2.2325500845909"
428,Le Michelet,4.0,18,48.83508,2.22876,Restaurants,67 Rue Sèvres,"48.835583838706,2.2325500845909"
429,Vivaldi,4.5,4,48.83538,2.2309,Restaurants,217 rue Galliéni,"48.835583838706,2.2325500845909"
430,La Médina,4.0,24,48.83082,2.2339599999999997,Moroccan,110 ave Gén Leclerc,"48.835583838706,2.2325500845909"
431,Les Galopins,4.0,18,48.83376,2.2398,French,17 Rue Paul Bert,"48.835583838706,2.2325500845909"
432,Royal Inde,4.5,3,48.83552,2.23199,Indian,203 rue Gallieni,"48.835583838706,2.2325500845909"
433,Chez Madeleine,4.5,21,48.8399901,2.2453856,Lebanese,39 rue de Paris,"48.835583838706,2.2325500845909"
434,Ajisai,4.0,2,48.83441,2.23106,Restaurants,3 Rue Michelet,"48.835583838706,2.2325500845909"
435,ZerZour,4.5,4,48.836000000000006,2.2367499,"Bakeries, Salad, Sandwiches",127 rue Billancourt,"48.835583838706,2.2325500845909"
436,Bella Vita,3.5,8,48.83508,2.22876,Italian,58 Rue Sèvres,"48.835583838706,2.2325500845909"
437,Lelan Stephane,5.0,1,48.8358,2.23235,Bakeries,87 Rue Silly,"48.835583838706,2.2325500845909"
438,La Table de Cybèle,4.5,7,48.8278755,2.2421091,"French, Wine Bars",38 rue de Meudon,"48.835583838706,2.2325500845909"
439,Big Fernand,3.5,13,48.83321779,2.22896929,Burgers,60 rue de Sèvres,"48.835583838706,2.2325500845909"
440,Spark's,3.5,5,48.862724,2.196021,"Pubs, Burgers, Brasseries",67 avenue de Fouilleuse,"48.862090937689715,2.196576297283173"
441,Le Relais Saint Antoine,4.5,6,48.8565,2.19293,French,2 Passage St Antoine,"48.862090937689715,2.196576297283173"
442,Le Bonheur de Chine,3.5,6,48.865214,2.20607,Chinese,2-6 allée Aristide Maillol,"48.862090937689715,2.196576297283173"
443,Sonargaon,5.0,1,48.86319,2.2025900000000003,Indian,18 bd Aristide Briand,"48.862090937689715,2.196576297283173"
444,Paris Dakar,5.0,1,48.8631023596518,2.20155442848045,African,1 place de Stalingrad,"48.862090937689715,2.196576297283173"
445,Rueil Impérial,4.0,10,48.870013,2.194816,Chinese,12 rue Corneille,"48.862090937689715,2.196576297283173"
446,Piccola Italia 2,4.5,2,48.86909,2.19806,Italian,103 Avenue Prés Pompidou,"48.862090937689715,2.196576297283173"
447,Marco Aurélio,4.0,5,48.8691646,2.1981056,Restaurants,103 Avenue Prés Pompidou,"48.862090937689715,2.196576297283173"
448,Paris Golf & Country Club,3.0,1,48.859282,2.194569,"Parks, Golf",121 Rue du Lieutenant-Colonel de Montbrison,"48.862090937689715,2.196576297283173"
449,Nabab,4.0,1,48.86828,2.193492,Fast Food,63 avenue du 18 Juin,"48.862090937689715,2.196576297283173"
450,le royal d'Agen,4.0,1,48.8674181,2.2038967,Bakeries,67 rue Galliéni,"48.862090937689715,2.196576297283173"
451,Les Louves,2.0,1,48.86395,2.20552,Restaurants,4 Avenue Gustave Stresemann,"48.862090937689715,2.196576297283173"
452,Le Terminus,3.0,2,48.864706899999995,2.2070749,"Restaurants, Bars",181 Avenue 18 Juin 1940,"48.862090937689715,2.196576297283173"
453,Rueil Paëlla,1.0,1,48.8680709,2.1930395000000003,Restaurants,63 Avenue 18 Juin 1940,"48.862090937689715,2.196576297283173"
454,Spido Pizza,3.0,2,48.8657914,2.2041856,"Pizza, Italian",85 Rue Galliéni,"48.862090937689715,2.196576297283173"
455,L'Annexe,2.0,1,48.8643079,2.2058676,"Photography Stores & Services, Restaurants",5 Place du Général de Gaulle,"48.862090937689715,2.196576297283173"
456,Le Sirocco,4.5,46,48.835879999999996,2.35193,Moroccan,8 bis rue Gobelins,"48.835092787824,2.3534681351338"
457,Bekseju Village,4.5,23,48.837834096609996,2.35501964842013,Korean,53 bd Saint-Marcel,"48.835092787824,2.3534681351338"
458,Izu,4.0,34,48.8337,2.35467,"Japanese, Pan Asian",7 Rue Véronèse,"48.835092787824,2.3534681351338"
460,L'Entracte,3.5,26,48.8333299,2.3545700000000003,Brasseries,75 ave des Gobelins,"48.835092787824,2.3534681351338"
461,Le Réveil Matin,4.0,15,48.83575,2.3522599,"Bars, Brasseries, French",32 avenue des Gobelins,"48.835092787824,2.3534681351338"
462,Au Petit Marguery,4.0,61,48.836769814636895,2.349908,French,9 boulevard de Port-Royal,"48.835092787824,2.3534681351338"
463,Pizza Del Navona,4.0,23,48.833459999999995,2.35385,"Pizza, Italian",60 avenue des Gobelins,"48.835092787824,2.3534681351338"
465,Restaurant Marty,4.0,34,48.83706,2.35162,"French, Seafood",20 ave Gobelins,"48.835092787824,2.3534681351338"
466,Au Petit Village,5.0,12,48.8332625215691,2.35616696743751,French,06 rue Coypel,"48.835092787824,2.3534681351338"
467,Au Bon Coin,4.5,17,48.83813,2.35184,Bistros,21 rue de la Collégiale,"48.835092787824,2.3534681351338"
468,Les Négociants,3.5,22,48.83676,2.35188,French,23 avenue des Gobelins,"48.835092787824,2.3534681351338"
470,Ai-Hua,4.5,8,48.8360269745088,2.35302820801735,"Vietnamese, Korean",27 rue de la Reine Blanche,"48.835092787824,2.3534681351338"
471,Chez Gladines,4.0,254,48.828838962217,2.3506152981184,"Basque, French Southwest",30 rue des Cinq Diamants,"48.835092787824,2.3534681351338"
473,Le Comptoir Marguery,4.0,13,48.83679,2.34983,"French, Wine Bars",9 boulevard de Port-Royal,"48.835092787824,2.3534681351338"
474,Virgule,4.0,38,48.83356,2.3544400000000003,French,9 rue Véronèse,"48.835092787824,2.3534681351338"
475,Au P'tit Cahoua,4.0,83,48.83835,2.35743,Moroccan,39 bd St Marcel,"48.835092787824,2.3534681351338"
476,La Maison Bleue,4.5,40,48.878343,2.351023,"Bistros, French, Breakfast & Brunch",7 place Franz Liszt,"48.879089,2.354235"
478,Terminus Nord,3.5,112,48.880829999999996,2.35144,"French, Brasseries",23 rue de Dunkerque,"48.879089,2.354235"
479,La Chaufferie,4.0,14,48.8788718,2.3541699,"Bars, French",2 boulevard Denain,"48.879089,2.354235"
480,John Viande,4.5,81,48.874333,2.354259,"Burgers, Beer Bar, Cocktail Bars",7bis rue de Paradis,"48.879089,2.354235"
485,Brasserie Bellanger,5.0,12,48.881053418300326,2.3504554666080306,French,140 rue du Faubourg Poissonnière,"48.879089,2.354235"
486,La Villa Andréa,4.0,34,48.87911,2.35327,Italian,109 boulevard Magenta,"48.879089,2.354235"
489,Pedzouille,4.5,25,48.876133,2.348528,"Bistros, Steakhouses",66 rue du Faubourg Poissonnière,"48.879089,2.354235"
490,La Pointe du Grouin,3.5,54,48.879371899999995,2.3525127999999995,"Sandwiches, French, Tapas Bars",8 rue de Belzunce,"48.879089,2.354235"
491,Sacrée Fleur,4.5,96,48.88758,2.3479199,French,50 rue Clignancourt,"48.879089,2.354235"
492,Pizzeria Babalou,4.5,173,48.886483,2.344328,"Italian, Pizza",4 rue Lamarck,"48.879089,2.354235"
494,Les Miscellanées de M Jash,5.0,5,48.8801637722566,2.35136020928621,"Cafes, Delicatessen",96 rue de Maubeuge,"48.879089,2.354235"
500,Le Crystal,5.0,13,48.876219,2.290163,"Halal, French",10 rue des Acacias,"48.876116,2.288124"
501,Le Cinq,4.5,152,48.8688,2.30083,French,,"48.876116,2.288124"
503,La Gazette Paris,4.5,29,48.87523,2.28647,"French, Bars, Tea Rooms",28 Rue Duret,"48.876116,2.288124"
504,Le Timgad,4.5,33,48.87785,2.28816,"Moroccan, Oriental",21 Rue Brunel,"48.876116,2.288124"
508,Kirane India,4.5,19,48.878009999999996,2.28555,Indian,20 rue du Débarcadère,"48.876116,2.288124"
510,Le Grand Bistro Maillot Saint-Ferdinand,3.5,43,48.87778,2.2847560000000002,French,275 bd Pereire,"48.876116,2.288124"
512,Le Crabe Marteau,4.0,31,48.876404,2.290608,Seafood,16 rue des Acacias,"48.876116,2.288124"
513,Le Congrès Maillot,3.5,68,48.877544,2.284548,Seafood,80 avenue Grande Armée,"48.876116,2.288124"
514,L'Auberge Dab,3.5,91,48.876607,2.283377,"Seafood, Brasseries",161 avenue de Malakoff,"48.876116,2.288124"
515,La Cuisiniere Lyonnaise,5.0,8,48.87788,2.2879400000000003,French,37 rue Saint-Ferdinand,"48.876116,2.288124"
516,Show Devant,4.0,6,48.79493,2.3662400000000003,"Wine Bars, French",38 rue Georges Lebigot,"48.794902381218904,2.3734183609485626"
517,Maihak,4.5,18,48.79022,2.36668,Indian,102 rue Jean Jaures,"48.794902381218904,2.3734183609485626"
518,Musée d'art contemporain,4.0,13,48.792711700000005,2.3869109,Museums,Place de la Libération,"48.794902381218904,2.3734183609485626"
519,L'Adresse,4.5,2,48.79262,2.36824,"Halal, French",84 Boulevard Maxime Gorki,"48.794902381218904,2.3734183609485626"
520,Phô 94,5.0,2,48.80202,2.37857,"Vietnamese, Thai",139 boulevard de Stalingrad,"48.794902381218904,2.3734183609485626"
521,Gli Angeli,4.0,1,48.799246171758604,2.36542940139771,"Pizza, Italian",110 avenue de Paris,"48.794902381218904,2.3734183609485626"
522,Khankluay,5.0,1,48.7909393,2.3666999,Thai,125 rue Jean Jaurès,"48.794902381218904,2.3734183609485626"
523,restaurant japonais Kendo,4.0,6,48.7886505,2.36673,"Food Delivery Services, Japanese",126 rue Jean jaurès,"48.794902381218904,2.3734183609485626"
524,Casa Tino,3.0,5,48.80129,2.37965,"Pizza, Napoletana",118 bd de Stalingrad,"48.794902381218904,2.3734183609485626"
525,Dragon D'Or,3.0,2,48.7953641,2.367228,Chinese,13 Boulevard Paul Vaillant Couturier,"48.794902381218904,2.3734183609485626"
526,Station Resto,3.0,1,48.7920914,2.38625,Pizza,5 ave Moulin de Saquet,"48.794902381218904,2.3734183609485626"
527,Tayama,3.5,5,48.7918,2.3665700000000003,Japanese,91 rue Jean Jaurès,"48.794902381218904,2.3734183609485626"
528,McDonald's,3.0,4,48.79198,2.369908,"Burgers, Fast Food",123 boulevard Maxime Gorki,"48.794902381218904,2.3734183609485626"
529,La Barraca,3.0,1,48.79364,2.3689299999999998,French,90 boulevard Maxime Gorki,"48.794902381218904,2.3734183609485626"
530,Monopoli,2.5,3,48.7946,2.36151,"Pizza, Food",43 Avenue Paul Vaillant Couturier,"48.794902381218904,2.3734183609485626"
531,Le Péché Mignon,3.0,1,48.7925,2.36654,Restaurants,48 rue Jean Jaurès,"48.794902381218904,2.3734183609485626"
532,Maison Caquelin,3.0,4,48.7948219557962,2.36626734722131,Bakeries,24 rue Jean Jaurès,"48.794902381218904,2.3734183609485626"
533,Gusti d'Italia,4.5,2,48.79265170000001,2.3660555,Pizza,5 Rue Georges Lebigot,"48.794902381218904,2.3734183609485626"
534,Tokyo Au Porte Bonheur,4.0,1,48.798,2.38236,Pan Asian,78 Boulevard de Stalingrad,"48.794902381218904,2.3734183609485626"
535,Bertin Patrick,3.0,1,48.792770000000004,2.36659,Bakeries,77 rue Jean Jaurès,"48.794902381218904,2.3734183609485626"
543,Nossa,4.5,36,48.847390000000004,2.34817,"Portuguese, Rotisserie Chicken",1 rue de l'Ecole Polytechnique,"48.84504716661511,2.3494647851273465"
546,Jozi Café,5.0,30,48.84787,2.34706,"Coffee & Tea, Breakfast & Brunch",3 rue Valette,"48.84504716661511,2.3494647851273465"
549,Restaurant Godjo,4.0,138,48.847646600000004,2.3479957000000002,"Ethiopian, African",8 rue de l'Ecole Polytechnique,"48.84504716661511,2.3494647851273465"
550,Le Petit Prince de Paris,4.0,221,48.848422,2.3465130000000003,French,12 rue de Lanneau,"48.84504716661511,2.3494647851273465"
553,Teddy's Bar,4.0,51,48.845,2.3494,Bars,3 rue Thouin,"48.84504716661511,2.3494647851273465"
556,Chez Janou,4.0,564,48.85669524301579,2.36717752386277,"Bistros, Provencal",2 rue Roger Verlomme,"48.8570414504784,2.37289470306807"
557,Le Bistrot des Vosges,4.5,67,48.8557424,2.368231,Bistros,31 bd Beaumarchais,"48.8570414504784,2.37289470306807"
559,Les Marcheurs de Planète,4.5,48,48.856590999999995,2.3771299999999997,"French, Wine Bars",73 rue Roquette,"48.8570414504784,2.37289470306807"
560,Santa Carne,4.5,67,48.854727000000004,2.3694349999999997,"Argentine, Steakhouses, Barbeque",3 boulevard Richard Lenoir,"48.8570414504784,2.37289470306807"
562,Katmandou Café,4.0,33,48.85698,2.37255,Indian,14 rue Bréguet,"48.8570414504784,2.37289470306807"
563,Café de l'Industrie,3.5,297,48.85548,2.37195,Bistros,16 rue Saint Sabin,"48.8570414504784,2.37289470306807"
565,East Mamma,4.5,254,48.851034000000006,2.377739,"Pizza, Trattorie",133 rue du Faubourg Saint-Antoine,"48.8570414504784,2.37289470306807"
567,Le Chat Ivre,4.5,17,48.85524,2.3747599999999998,"Modern European, Wine Bars",22 Rue Taillandiers,"48.8570414504784,2.37289470306807"
570,Pierre Sang,4.5,155,48.86461,2.37233,"French, Korean",55 rue Oberkampf,"48.8570414504784,2.37289470306807"
571,Blue Elephant,3.5,479,48.855515000000004,2.374148,Thai,43-45 rue de la Roquette,"48.8570414504784,2.37289470306807"
572,Café Truc,3.5,12,48.8571008,2.3730119999999997,French,8 rue Froment,"48.8570414504784,2.37289470306807"
573,Au Passage,4.0,123,48.86139,2.3681900000000002,"Modern European, Tapas/Small Plates",1 bis passage Saint Sébastien,"48.8570414504784,2.37289470306807"
574,Chez Paul,4.0,246,48.852779999999996,2.37435,Bistros,13 rue Charonne,"48.8570414504784,2.37289470306807"
575,Epicerie Breizh,4.0,458,48.861039,2.361757,"Creperies, Cafes",109 rue Vieille du Temple,"48.8570414504784,2.37289470306807"
577,Deux Cigales,4.0,55,48.84315,2.32998,French,8 Rue Brea,"48.84479928858768,2.329337755887181"
579,Moustache,4.5,33,48.8442,2.329891,French,3 Rue Sainte Beuve,"48.84479928858768,2.329337755887181"
580,Invictus,4.5,21,48.844071,2.3296118999999997,Bistros,5 rue Sainte-Beuve,"48.84479928858768,2.329337755887181"
584,Restaurant Georgette,4.5,25,48.847323186089,2.32983749359846,"Brasseries, Modern European",44 rue d'Assas,"48.84479928858768,2.329337755887181"
585,La Coupole,3.5,261,48.8424,2.32835,"Brasseries, Seafood",102 boulevard du Montparnasse,"48.84479928858768,2.329337755887181"
586,Le Dôme,3.5,110,48.8419761221168,2.32908217958447,Seafood,108 boulevard du Montparnasse,"48.84479928858768,2.329337755887181"
590,Cubana Café,3.0,120,48.84265,2.32882,"Bars, Cuban, Tapas Bars",47 rue Vavin,"48.84479928858768,2.329337755887181"
591,Bagels and Brownies,4.0,57,48.84641,2.3273099999999998,"American (Traditional), Bagels",12 rue Notre Dame des Champs,"48.84479928858768,2.329337755887181"
592,La Charette Créole,4.0,44,48.84267,2.33025,"Mauritius, Reunion",15 rue Jules Chaplain,"48.84479928858768,2.329337755887181"
594,La Crêperie Bretonne,4.0,96,48.842037299999994,2.3253167,Creperies,56 rue du Montparnasse,"48.84479928858768,2.329337755887181"
596,Arthur et Juliette,4.0,11,48.833008,2.3002860000000003,Brasseries,51 rue des Morillons,"48.83310149953933,2.299380004405976"
597,Maison Issa,4.5,17,48.8327,2.294,Lebanese,81 rue Olivier de Serres,"48.83310149953933,2.299380004405976"
598,Les Tontons,3.5,29,48.832,2.3029,"Bistros, Brasseries",73 Rue Brancion,"48.83310149953933,2.299380004405976"
599,Songsan,4.0,30,48.83675969499189,2.2993165441571404,Korean,20 rue Marmontel,"48.83310149953933,2.299380004405976"
600,Le Caroubier,4.5,27,48.83032,2.29575,Moroccan,82 bd Lefebvre,"48.83310149953933,2.299380004405976"
601,Le Coin d'Alexandre,5.0,8,48.832253,2.293413,French,86 rue Olivier de Serres,"48.83310149953933,2.299380004405976"
602,Je Thè...Me,4.0,69,48.83866,2.3005399,French,4 rue d'Alleray,"48.83310149953933,2.299380004405976"
603,Aux 100 Kilos,3.5,19,48.8319901,2.3030915000000003,"Sports Bars, Cafes, Cocktail Bars",71 rue Brancion,"48.83310149953933,2.299380004405976"
604,Le Grand Pan,4.0,36,48.83311,2.30589,French,20 Rue Rosenwald,"48.83310149953933,2.299380004405976"
605,Indian Swad,4.0,7,48.8324814,2.2974,Indian,50 rue de Dantzig,"48.83310149953933,2.299380004405976"
606,Restaurant Le Bélisaire,4.0,48,48.83741,2.30094,Restaurants,2 rue Marmontel,"48.83310149953933,2.299380004405976"
607,Parc Georges-Brassens,4.0,15,48.8315894613814,2.3002309005248702,Parks,2 place Jacques Marette,"48.83310149953933,2.299380004405976"
608,Mad'eo,4.5,15,48.83381,2.28956,"Creperies, Tea Rooms",14 rue de Cadix,"48.83310149953933,2.299380004405976"
609,Axuria,4.5,16,48.8407593,2.2867601000000004,French,54 ave Félix Faure,"48.83310149953933,2.299380004405976"
610,Afaria,4.0,62,48.836006,2.291656,"French, Basque, French Southwest",15 rue Desnouettes,"48.83310149953933,2.299380004405976"
611,AlKaram,4.5,36,48.83846,2.2970799,Middle Eastern,15 rue Ferdinand Fabre,"48.83310149953933,2.299380004405976"
612,Le Petit Gorille,4.0,7,48.8330487859524,2.3009329030734302,French,46 rue de Cronstadt,"48.83310149953933,2.299380004405976"
613,Le Petit Pan,4.5,7,48.83311,2.30589,Bistros,18 rue Rosenwald,"48.83310149953933,2.299380004405976"
614,Le Toucan,4.5,19,48.84057,2.30478,Brasseries,226 Rue Vaugirard,"48.83310149953933,2.299380004405976"
615,Bistro D'indochine,4.5,8,48.8307953,2.2965557999999997,Vietnamese,49 rue de Dantzig,"48.83310149953933,2.299380004405976"
616,Le Volant Basque,4.5,233,48.8499,2.29127,Basque,13 rue Béatrix Dussane,"48.851315406715976,2.2919502854347233"
617,Au Dernier Métro,4.0,172,48.850359999999995,2.29311,French,70 boulevard de Grenelle,"48.851315406715976,2.2919502854347233"
618,Restaurant de la Tour,5.0,60,48.85439,2.29505,French,6 Rue Desaix,"48.851315406715976,2.2919502854347233"
619,La Cantine du Troquet Dupleix,4.0,62,48.851417,2.292189,French,53 boelevard de Grenelle,"48.851315406715976,2.2919502854347233"
620,La Fontaine de Mars,4.5,315,48.858394,2.302568,French,129 rue Saint-Dominique,"48.851315406715976,2.2919502854347233"
621,Le Casse Noix,4.5,42,48.85348,2.2951099999999998,French,56 rue de la Fédération,"48.851315406715976,2.2919502854347233"
622,Amalfi,4.5,29,48.85067,2.2918,"Italian, Pizza",4 rue Viala,"48.851315406715976,2.2919502854347233"
623,Les Cocottes,4.0,546,48.85819,2.30183,Bistros,135 rue Saint Dominique,"48.851315406715976,2.2919502854347233"
624,La Tour Eiffel,4.5,2045,48.858368,2.29448028497734,Landmarks & Historical Buildings,5 avenue Anatole France,"48.851315406715976,2.2919502854347233"
625,142 Crêperie Contemporaine,4.5,129,48.848797999999995,2.2875099999999997,Creperies,59 rue Saint-Charles,"48.851315406715976,2.2919502854347233"
626,Le Violon d'Ingres,4.5,118,48.85819,2.30183,French,135 rue Saint-Dominique,"48.851315406715976,2.2919502854347233"
627,Neige d'Eté,5.0,32,48.8453598,2.2990401,French,12 rue de l'Amiral Roussin,"48.851315406715976,2.2919502854347233"
628,Aux Cerises,4.5,60,48.85367,2.29725,Cafes,47 avenue Suffren,"48.851315406715976,2.2919502854347233"
629,Café de Mars,4.5,119,48.85731,2.30205,"French, Mediterranean, Asian Fusion",11 rue Augereau,"48.851315406715976,2.2919502854347233"
630,BCBG - Bistro et Burger Gourmet,4.5,13,48.84967,2.29529,Burgers,96 boulevard de Grenelle,"48.851315406715976,2.2919502854347233"
631,Pottoka,4.5,68,48.858270000000005,2.30254,French,4 rue de l'Exposition,"48.851315406715976,2.2919502854347233"
632,Au Bon Accueil,4.5,87,48.859609899999995,2.2993433999999997,French,14 rue Monttessuy,"48.851315406715976,2.2919502854347233"
633,Firmine,4.0,449,48.854542878543604,2.29536492165825,"Italian, French",38 bis avenue de Suffren,"48.851315406715976,2.2919502854347233"
634,Villa Verdi,4.5,23,48.854002,2.296251,Italian,42 avenue de Suffren,"48.851315406715976,2.2919502854347233"
635,Su Misura,4.5,77,48.85924,2.3004,"Italian, Pizza",22 avenue Rapp,"48.851315406715976,2.2919502854347233"
637,L'Epicure,4.5,168,48.871697,2.314657,"French, Breakfast & Brunch",112 rue du Faubourg Saint-Honoré,"48.879406604954,2.3034455627202988"
643,Baroche,4.0,225,48.871315,2.307362,Brasseries,101 rue la Boétie,"48.879406604954,2.3034455627202988"
645,Les 110 de Taillevent,4.0,42,48.875877,2.3029349999999997,French,195 rue du faubourg Saint-Honoré,"48.879406604954,2.3034455627202988"
647,Brasserie Lorraine,3.5,85,48.8779,2.29885,"Bistros, Breakfast & Brunch, Seafood, Brasseries",2 Place Des Ternes,"48.879406604954,2.3034455627202988"
651,Pomze,4.5,96,48.87525,2.31618,French,109 bd Haussmann,"48.879406604954,2.3034455627202988"
653,Le 114 Faubourg,4.5,34,48.871784999999996,2.3144720000000003,French,114 faubourg Saint-Honoré,"48.879406604954,2.3034455627202988"
654,Le Sens Unique,4.5,69,48.87165529999999,2.3064859,"French, Wine Bars",47 rue de Ponthieu,"48.879406604954,2.3034455627202988"
659,Cacio e Peppe,4.5,34,48.83171,2.34635,Italian,16 rue Vulpian,"48.830981659316855,2.3481646925210953"
661,Auberge Etchegorry,3.5,46,48.83228,2.350482,Basque,43 rue Croulebarbe,"48.830981659316855,2.3481646925210953"
663,Chez Mamane,4.5,30,48.82871,2.35062,Mediterranean,27 rue des Cinq Diamants,"48.830981659316855,2.3481646925210953"
664,Mondol Kiri,4.5,61,48.8281074770418,2.35815775425272,Cambodian,159 avenue de Choisy,"48.830981659316855,2.3481646925210953"
665,Le Temps des Cerises SCOP,3.5,71,48.827911,2.350476,"French, Bistros",18 rue Butte aux Cailles,"48.830981659316855,2.3481646925210953"
668,L'Oisivethé,4.0,37,48.828076324673795,2.35162642327884,"Breakfast & Brunch, Vegetarian",8 bis rue de la Butte aux Cailles,"48.830981659316855,2.3481646925210953"
669,Le Vaudésir,5.0,25,48.83035,2.33548,Bistros,41 rue Dareau,"48.830981659316855,2.3481646925210953"
670,La Folie en Tête,4.5,34,48.82754,2.34812,Bars,33 rue de la Butte aux Cailles,"48.830981659316855,2.3481646925210953"
671,Com Viet,4.0,15,48.82799970000001,2.3457416,"Vietnamese, Thai",26 rue Vergniaud,"48.830981659316855,2.3481646925210953"
672,Laurent Duchêne,4.0,26,48.827890000000004,2.34564,"Bakeries, Macarons, Patisserie/Cake Shop",2 rue Wurtz,"48.830981659316855,2.3481646925210953"
673,Les Cailloux,3.0,96,48.8277075,2.3493087000000004,Italian,58 rue des Cinq Diamants,"48.830981659316855,2.3481646925210953"
674,Villa Saint Jacques,4.0,42,48.832227,2.334595,"Italian, Pizza",1 boulevard Saint-Jacques,"48.830981659316855,2.3481646925210953"
678,Dong Huong,3.5,97,48.871223,2.3768937055812,Vietnamese,14 rue Louis Bonnet,"48.871031137596,2.379056852114"
680,Aux Folies,4.0,39,48.872288,2.378046,Bars,8 rue de Belleville,"48.871031137596,2.379056852114"
681,Les Pieds sous la Table,4.5,33,48.86793,2.37532,"French, Tapas Bars",130 Rue St Maur,"48.871031137596,2.379056852114"
682,Pierre Sang on Gambey,4.5,55,48.8649902,2.3721398999999996,"Modern European, French",6 rue Gambey,"48.871031137596,2.379056852114"
683,Cannibale,3.5,65,48.8684221444953,2.37940839332775,French,93 rue Jean-Pierre Timbaud,"48.871031137596,2.379056852114"
684,Les Fabricants,4.0,73,48.867163,2.374997,"Basque, French Southwest",61 rue Jean-Pierre Timbaud,"48.871031137596,2.379056852114"
685,Le Barbouquin,4.5,14,48.871052,2.3787811000000003,"Bookstores, Cafes",1 rue Dénoyez,"48.871031137596,2.379056852114"
687,Chambelland,4.5,65,48.86423320000001,2.3734243,"Bakeries, Gluten-Free",14 rue Ternaux,"48.871031137596,2.379056852114"
688,Chez Yu,4.0,28,48.872924,2.380748,Vietnamese,40 rue de Belleville,"48.871031137596,2.379056852114"
690,La Reine de Saba,4.5,41,48.867329999999995,2.37608,Ethiopian,78 rue Jean-Pierre Timbaud,"48.871031137596,2.379056852114"
691,The Hood Paris,4.0,38,48.86735,2.3763799999999997,"Coffee & Tea, Breakfast & Brunch, Pan Asian",80 rue Jean-Pierre Timbaud,"48.871031137596,2.379056852114"
692,MELT OBERKAMPF,4.5,33,48.865612,2.370802,"Steakhouses, Barbeque, American (Traditional)",74 rue de la Folie Méricourt,"48.871031137596,2.379056852114"
693,Soya,4.0,176,48.86805,2.370184,"Breakfast & Brunch, Vegan, Gluten-Free",20 rue de la Pierre Levée,"48.871031137596,2.379056852114"
694,Le Galopin,4.5,39,48.874190000000006,2.37265,French,34 rue Sainte-Marthe,"48.871031137596,2.379056852114"
695,Le Jourdain,4.5,24,48.872169899999996,2.38924,"Tapas Bars, Seafood",101 rue des Couronnes,"48.871031137596,2.379056852114"
696,Il Far'niente,4.0,54,48.823504,2.33048,Italian,1 rue Paul Fort,"48.82234096593411,2.327861653302471"
697,Palais de Vandan,4.0,34,48.82405,2.3283099999999997,Indian,30 rue Paul Fort,"48.82234096593411,2.327861653302471"
698,Le Jeroboam,4.5,55,48.82906,2.3169299999999997,French,72 rue Didot,"48.82234096593411,2.327861653302471"
699,Auto Passion Café,3.5,39,48.823598,2.324751,Cafes,197 boulevard Brune,"48.82234096593411,2.327861653302471"
700,Les Saveurs du Sichuan,4.5,14,48.825039000000004,2.32348,"Szechuan, Asian Fusion",34 rue Friant,"48.82234096593411,2.327861653302471"
701,Origins 14 - la Régalade,4.0,113,48.824870000000004,2.3203099999999997,French,49 avenue Jean Moulin,"48.82234096593411,2.327861653302471"
703,Maison Thevenin,4.0,21,48.82423,2.3258900000000002,"Bakeries, Patisserie/Cake Shop",119 avenue du Général Leclerc,"48.82234096593411,2.327861653302471"
705,Aubergine Et Cie,4.0,24,48.819599200000006,2.3234701,French,36 ave Ginoux,"48.82234096593411,2.327861653302471"
706,Paris Orléans,3.0,20,48.8232,2.32563,French,129 ave Gén Leclerc,"48.82234096593411,2.327861653302471"
707,Les Artistes,4.0,70,48.829719814296,2.3177948382617997,"French, Breakfast & Brunch, Bars",60 Rue Didot,"48.82234096593411,2.327861653302471"
708,Les Vendanges,3.5,53,48.8244,2.32344,French,40 rue Friant,"48.82234096593411,2.327861653302471"
710,Parc Montsouris,4.5,75,48.822216,2.338178,Parks,2 rue Gazan,"48.82234096593411,2.327861653302471"
711,L'Epi d'Orléans,5.0,1,48.8224,2.3279900000000002,Bakeries,107 Boulevard Jourdan,"48.82234096593411,2.327861653302471"
712,Bona Suzy,4.5,5,48.8241935408142,2.32443146885388,African,9 rue Poirier de Narçay,"48.82234096593411,2.327861653302471"
713,Le Bouquet d'Alesia,3.5,26,48.82799,2.32709,"Bars, French, Brasseries",75 avenue du Général Leclerc,"48.82234096593411,2.327861653302471"
714,La Basilicata,4.5,8,48.826674700000005,2.3228551,Italian,36 Avenue Jean Moulin,"48.82234096593411,2.327861653302471"
715,Auberge du Moulin Vert,3.5,54,48.8298,2.32305,"French, Seafood",34 bis rue des Plantes,"48.82234096593411,2.327861653302471"
716,Villa 9 Trois,4.0,28,48.86391,2.43313,French,71 rue Hoche,"48.86785,2.446748"
717,Le Mange Disc,4.0,8,48.8658135,2.4466307,"Dance Clubs, Pubs",50 rue de Romainville,"48.86785,2.446748"
718,AWL,4.0,2,48.8665499894259,2.44469035416842,"Buffets, Pan Asian, Halal",53 bd Paul Vaillant Couturier,"48.86785,2.446748"
719,Restaurant  Gujarat,3.5,5,48.8651446784519,2.4432387581838797,Indian,35 bd Paul Vaillant Couturier,"48.86785,2.446748"
720,delicecreole,1.0,1,48.8655891,2.44401,Caribbean,32 boulevard paul vaillant couturier,"48.86785,2.446748"
721,Le Gramophone,3.5,9,48.864059999999995,2.44503,Turkish,1 rue Pépin,"48.86785,2.446748"
722,New Kyoto,3.0,2,48.86312,2.44394,"Japanese, Sushi Bars",31 rue Franklin,"48.86785,2.446748"
723,Les Marmites Volantes,4.0,3,48.86548,2.43725,French,47 avenue Pasteur,"48.86785,2.446748"
724,Le Trou Normand,4.0,6,48.8667984,2.43554,Brasseries,94 ave Pasteur,"48.86785,2.446748"
725,La Romainville,4.5,3,48.8599391,2.4390436,"Desserts, Patisserie/Cake Shop, Macarons",29 boulevard Rouget de l'Isle,"48.86785,2.446748"
726,Deja Vu Lounge,1.0,1,48.872701595484294,2.45354743546578,"Hookah Bars, Lounges, Pizza",132 boulevard Aristide Briand,"48.86785,2.446748"
727,Le Plateau des Mille Vaches,4.5,3,48.86359,2.4498599999999997,"Bars, Persian/Iranian",89 Rue Rosny,"48.86785,2.446748"
728,Glacier Martinez,5.0,2,48.862590000000004,2.44214,"Ice Cream & Frozen Yogurt, Food Trucks",Place Jean Jaurès,"48.86785,2.446748"
729,Café Salé,3.5,8,48.863075,2.440693,"Brasseries, French",1 avenue Pasteur,"48.86785,2.446748"
730,Le Capri,5.0,1,48.872052000000004,2.451727,"French, Pizza",19 Rue Fernand Combette,"48.86785,2.446748"
731,Saïgon,3.5,3,48.8613316,2.4407822999999995,Vietnamese,7 boulevard Rouget de Lisle,"48.86785,2.446748"
732,Yan Kady Chez Fatou,3.0,4,48.860794855454294,2.4398932233452797,Senegalese,22 bd Rouget de Lisle,"48.86785,2.446748"
733,La Bottega Della Pizza,5.0,2,48.8601831970923,2.43885319679975,Pizza,38-38 boulevard Rouget de Lisle,"48.86785,2.446748"
734,Thé Vert,3.5,8,48.8596588,2.4405912,Japanese,43 Rue Capit Dreyfus,"48.86785,2.446748"
735,Pizzeria Andiamo,3.0,5,48.863812,2.448451,Pizza,Centre Commercial la Grande Porte,"48.86785,2.446748"
736,La Javelle,4.0,26,48.841033320643504,2.27156438378281,"Bars, Food Trucks",11 port de Javel Bas,"48.83823094269141,2.270506024360657"
737,Iannello,4.5,18,48.84026,2.26557,Italian,17 bd Exelmans,"48.83823094269141,2.270506024360657"
738,Anita,4.5,5,48.83890543970261,2.2662624037047903,"Italian, Pizza",182 quai Louis Blériot,"48.83823094269141,2.270506024360657"
739,Trinquet Village,4.0,18,48.8379307,2.265059,"Stadiums & Arenas, French Southwest, Bars",8 quai Saint-Exupéry,"48.83823094269141,2.270506024360657"
740,Palais du Bonheur,5.0,13,48.839062,2.2577580000000004,"Chinese, Thai",131 rue Michel-Ange,"48.83823094269141,2.270506024360657"
741,Le Mathusalem,3.5,23,48.839902863302,2.2664742271676,"Brasseries, French, Wineries",5 bis bd Exelmans,"48.83823094269141,2.270506024360657"
742,Pasta Oro,4.0,22,48.84152,2.26652,Italian,144 avenue de Versailles,"48.83823094269141,2.270506024360657"
743,River Cafe,3.5,121,48.829465,2.260595,French,146 quai de Stalingrad,"48.83823094269141,2.270506024360657"
744,Parc André-Citroen,4.0,60,48.84329,2.27501,Parks,2 rue Cauchy,"48.83823094269141,2.270506024360657"
745,Vin et Marée,3.5,17,48.8392516,2.2647867,"French, Seafood",183 boulevard Murat,"48.83823094269141,2.270506024360657"
746,La Cantina,5.0,10,48.83976183757,2.2637232849576403,Italian,11 rue Claude Terrasse,"48.83823094269141,2.270506024360657"
747,Tipaza,4.5,14,48.842412,2.2820197,Moroccan,155 rue Saint Charles,"48.83823094269141,2.270506024360657"
748,La Plage Parisienne,3.5,103,48.84352,2.27402,French,Port de Javel Haut,"48.83823094269141,2.270506024360657"
749,AL WADY TRAITEUR RESTAURANT LIBANAIS PARIS,4.0,15,48.839805,2.2834470000000002,Lebanese,153-155 rue de Lourmel,"48.83823094269141,2.270506024360657"
750,Les Petits Insolents,4.0,18,48.837666,2.259634,"Burgers, Bistros",2 place Léon Deubel,"48.83823094269141,2.270506024360657"
751,La Baie d'Halong,4.0,12,48.840272799999994,2.2637072999999996,Vietnamese,164 Av de Versailles,"48.83823094269141,2.270506024360657"
752,Le Cardinal,3.5,39,48.837355,2.257501,French,5 place de la Porte de Saint-Cloud,"48.83823094269141,2.270506024360657"
753,A & M,4.0,17,48.836999999999996,2.2619700000000003,French,136 Boulevard Murat,"48.83823094269141,2.270506024360657"
754,Saveurs de Tokyo,4.0,12,48.8404898,2.2645606,"Japanese, Sushi Bars",158 avenue de Versailles,"48.83823094269141,2.270506024360657"
755,La Regalia,4.0,37,48.845890000000004,2.27763,Cafes,1 rue de la Convention,"48.83823094269141,2.270506024360657"
756,La Bourgogne,3.5,5,48.793683,2.434372,French,164 Rue Jean jaurès,"48.79014780960843,2.43286281824112"
757,Kariya Sushi,4.0,1,48.79381,2.4342099999999998,"Japanese, Sushi Bars",133 rue Jean Jaurès,"48.79014780960843,2.43286281824112"
758,Biscuit d'Or,1.0,1,48.7915,2.42395,Bakeries,32 quai Jean-Baptiste Clément,"48.79014780960843,2.43286281824112"
759,Délice Food,4.0,1,48.7977994,2.4238288,"Bakeries, Sandwiches",16 rue Etienne Dolet,"48.79014780960843,2.43286281824112"
760,Michel Germain,5.0,1,48.7882201,2.4257129,Bakeries,127 Rue Etienne Dolet,"48.79014780960843,2.43286281824112"
761,Le Gulliver,3.0,1,48.7909815,2.4275086,Bars,1 Rue Londres,"48.79014780960843,2.43286281824112"
762,Le Muscadet,4.0,1,48.7929689,2.4237177000000005,"Cafes, Coffee & Tea",23 quai Jean-Baptiste Clement,"48.79014780960843,2.43286281824112"
763,Shiv Sankar,4.0,1,48.79861,2.42346,Indian,4 rue Etienne Dolet,"48.79014780960843,2.43286281824112"
764,pizzeria milo,3.0,1,48.7966,2.4213400000000003,"Pizza, Italian",24 rue Véron,"48.79014780960843,2.43286281824112"
765,Au Pied du Sacré Coeur,4.5,166,48.890208,2.3356074000000002,French,85 rue Lamarck,"48.89792240854517,2.32851451022192"
766,Le Refuge des Moines,4.5,26,48.89192,2.32213,"French, Bistros",85 Rue Moines,"48.89792240854517,2.32851451022192"
768,KIEZ Biergarten,4.0,46,48.8936245075874,2.3333360711230697,"German, Beer Gardens",24 rue Vauvenargues,"48.89792240854517,2.32851451022192"
769,In Bocca al Lupo,4.5,22,48.89028,2.3418200000000002,"Pizza, Italian",14 Rue Francoeur,"48.89792240854517,2.32851451022192"
770,Il Brigante,4.5,49,48.89197,2.33986,Pizza,14 rue Ruisseau,"48.89792240854517,2.32851451022192"
771,Le Crep'uscule,4.5,23,48.890364,2.335075,"Creperies, Tea Rooms",91 rue Lamarck,"48.89792240854517,2.32851451022192"
772,La Renaissance,4.0,25,48.895764899999996,2.3395742999999998,Bistros,112 rue Championnet,"48.89792240854517,2.32851451022192"
773,Ménélik,4.0,72,48.890681,2.320363,"Food Delivery Services, African",4 rue Sauffroy,"48.89792240854517,2.32851451022192"
774,Square Marcadet,4.0,36,48.892229,2.331327,"French, Bistros, Breakfast & Brunch",227 bis rue Marcadet,"48.89792240854517,2.32851451022192"
775,Le Safari,4.0,42,48.8933858929294,2.3403919860720603,Indian,36 Rue Ruisseau,"48.89792240854517,2.32851451022192"
776,Irène et Bernard,4.0,42,48.8936081,2.32214,Bistros,58 rue Gauthey,"48.89792240854517,2.32851451022192"
777,Le 975,5.0,9,48.8919995148592,2.3222841057308,French,25 rue Guy Moquet,"48.89792240854517,2.32851451022192"
778,Sens Uniques,4.5,14,48.88981,2.33383,"French, Breakfast & Brunch, Tapas Bars",44 rue Damrémont,"48.89792240854517,2.32851451022192"
779,Le Ruisseau,4.5,45,48.894490000000005,2.34065,"Burgers, French",65 rue du Ruisseau,"48.89792240854517,2.32851451022192"
780,Rossini,4.0,19,48.89614,2.33827,"Italian, Pizza",150 rue Damrémont,"48.89792240854517,2.32851451022192"
781,Sunset,4.0,22,48.893,2.3417,"Cocktail Bars, French, Breakfast & Brunch",100 rue Ordener,"48.89792240854517,2.32851451022192"
782,La Souris Verte,4.0,13,48.89155,2.3359900000000002,"Nightlife, French, Corsican",190 rue Marcadet,"48.89792240854517,2.32851451022192"
783,Café de la Butte,5.0,20,48.88965590654,2.336664036781,French,71 Rue Caulaincourt,"48.89792240854517,2.32851451022192"
784,Le Jean Mouloud,4.0,10,48.89398,2.33218,French,195 rue Championnet,"48.89792240854517,2.32851451022192"
792,Café Beaujolais,3.5,145,48.855109999999996,2.29448,French,28 avenue de Suffren,"48.853844054333514,2.289705348222022"
795,Langousta,5.0,39,48.856266,2.278149,Seafood,20 rue Singer,"48.853844054333514,2.289705348222022"
799,Chez Ribe,3.0,99,48.85652,2.2928319999999998,Brasseries,15 avenue de Suffren,"48.853844054333514,2.289705348222022"
807,Pont du Port à l'Anglais,4.0,1,48.7971608472406,2.4183557096965895,Landmarks & Historical Buildings,,"48.79628807093802,2.417212128639221"
808,Buffalo Grill,1.5,5,48.7958297,2.4108478,Steakhouses,Avenue Prés Salvador Allende - ZI Salvador Allende,"48.79628807093802,2.417212128639221"
809,Furin Kazan,4.5,3,48.80140364,2.42177993,Japanese,206 rue Paul Vaillant Couturier,"48.79628807093802,2.417212128639221"
811,Pizza Blanqui,4.0,3,48.80019,2.41819,"Italian, Pizza",71 quai Blanqui,"48.79628807093802,2.417212128639221"
815,L'imprévu,4.5,3,48.805,2.4051099999999996,"Hotels, Restaurants",94 avenue Anatole France,"48.79628807093802,2.417212128639221"
816,Le Paille en Queue,3.0,6,48.7998,2.4187708,"Caribbean, Reunion",77 quai Blanqui,"48.79628807093802,2.417212128639221"
817,Fabre Michel,4.0,4,48.80505,2.41928,Bakeries,168 Rue Paul Vaillant Couturier,"48.79628807093802,2.417212128639221"
818,La Rogina,3.0,9,48.8043,2.41983,"Armenian, Pizza",177 bis rue Paul Vaillant Couturier,"48.79628807093802,2.417212128639221"
821,La Dame aux Camélias,3.0,1,48.803156200000004,2.4236405,"Caterers, Fast Food",8 rue des Camélias,"48.79628807093802,2.417212128639221"
823,Les Petits Plats,4.0,2,48.804568438921606,2.4198065262044,"Oriental, Salad, International",175 rue Paul Vaillant-Couturier,"48.79628807093802,2.417212128639221"
824,Sainte Thérèse,4.5,2,48.805214500000005,2.4267017999999996,"Italian, Pizza",29 Avenue du Général De Gaulle,"48.79628807093802,2.417212128639221"
825,Paname Brewing Company,4.0,118,48.887828000000006,2.378784,"Breweries, Beer Bar, Pizza",41 bis quai de la Loire,"48.89594736851349,2.381133802246315"
826,Le Pavillon des Canaux,4.5,103,48.8874,2.37871,"Bars, Cafes, Modern European",39 quai de la Loire,"48.89594736851349,2.381133802246315"
827,Le Ptit Hugo,4.5,17,48.89589,2.38266,Creperies,34 rue de Cambrai,"48.89594736851349,2.381133802246315"
828,Au Cochon de Lait,4.0,9,48.89634,2.38414,French,23 Avenue Corentin Cariou,"48.89594736851349,2.381133802246315"
829,À la Folie,3.5,10,48.896569899999996,2.3846700000000003,"Bars, Barbeque, Dance Clubs",26 avenue Corentin Cariou,"48.89594736851349,2.381133802246315"
830,Au Boeuf Couronné,4.0,98,48.88831,2.39135,French,188 avenue Jean Jaurès,"48.89594736851349,2.381133802246315"
831,Le Bastringue,4.0,60,48.88792,2.3769,Bistros,67 quai de la Seine,"48.89594736851349,2.381133802246315"
832,La Peña Festayre,3.5,45,48.896975,2.386692,"Spanish, Basque, Tapas Bars",32 avenue Corentin Cariou,"48.89594736851349,2.381133802246315"
833,La Chope de Corentin,4.5,4,48.895514399999996,2.3831456,"Food, Bars",13 Avenue Corentin Cariou,"48.89594736851349,2.381133802246315"
834,Cité des Sciences et de l'Industrie,4.0,118,48.895602000000004,2.387897,Museums,30 avenue Corentin Cariou,"48.89594736851349,2.381133802246315"
835,Matsuba,3.5,17,48.897615,2.385119,"Korean, Japanese, Barbeque",37 avenue Corentin Cariou,"48.89594736851349,2.381133802246315"
836,Philharmonie de Paris,4.5,23,48.889305900000004,2.3938069,"Music Venues, Performing Arts, Museums",221 avenue Jean Jaurès,"48.89594736851349,2.381133802246315"
837,Les Bancs Publics,4.5,21,48.8908797,2.38388,"French, Bars",2 rue de Nantes,"48.89594736851349,2.381133802246315"
838,Simonetta,5.0,6,48.8902828134029,2.38396789842577,Italian,32 quai de la Marne,"48.89594736851349,2.381133802246315"
839,La Cité des Enfants,4.5,13,48.896032,2.388009,Museums,30 avenue Corentin Cariou,"48.89594736851349,2.381133802246315"
840,La Pièce de Boeuf,3.5,12,48.8951342,2.3827053,Steakhouses,7 Avenue Corentin Cariou,"48.89594736851349,2.381133802246315"
841,Parc de la Villette,4.0,35,48.891757,2.391928,Parks,211 avenue Jean Jaurès,"48.89594736851349,2.381133802246315"
842,Camarade Boris,4.0,12,48.88739,2.37906,French,90 quai de Loire,"48.89594736851349,2.381133802246315"
843,La Violette,2.5,15,48.895549,2.382793,French,11 avenue Corentin Cariou,"48.89594736851349,2.381133802246315"
844,Café Mama Kin,5.0,5,48.8894145,2.3836315,Pubs,13 rue de Thionville,"48.89594736851349,2.381133802246315"
845,Harper's,4.5,12,48.88463,2.3149,American (Traditional),31 rue Legendre,"48.882428,2.314002"
846,Scoop Café,4.5,15,48.882688,2.3169815,"Pubs, American (Traditional), Sports Bars",117 rue des Dames,"48.882428,2.314002"
847,Le Coin du Rocher,4.5,31,48.88051,2.31738,Bistros,88 rue Rocher,"48.882428,2.314002"
849,Esens'ALL,4.5,23,48.883733299999996,2.3178707999999997,Modern European,12 rue Dulong,"48.882428,2.314002"
850,Le Bistrot des Vignes,4.0,61,48.88299,2.31815,"French, Breakfast & Brunch",90 rue Dames,"48.882428,2.314002"
851,Un Air de famille,3.5,50,48.882290000000005,2.31587,French,118 rue des Dames,"48.882428,2.314002"
852,Bistrot du Passage,4.0,35,48.8824708722432,2.31720269545649,Bistros,14 passage Geoffroy Didelot,"48.882428,2.314002"
855,Chez Léon,4.0,13,48.88415,2.3143700000000003,"Breakfast & Brunch, French",32 Rue Legendre,"48.882428,2.314002"
856,Aux Merveilleux de Fred,4.5,18,48.882265000000004,2.313859,Desserts,7 Rue Tocqueville,"48.882428,2.314002"
857,Risi E Bisi,4.0,35,48.88015,2.3175,Italian,81 rue du Rocher,"48.882428,2.314002"
858,Emile & Jules,5.0,4,48.882259499999996,2.3144342,Bakeries,18 rue de la Terasse,"48.882428,2.314002"
859,Les Poulettes Batignolles,4.5,6,48.88281,2.31826,"French, Bistros",10 rue Cheroy,"48.882428,2.314002"
860,Le Dome,3.0,65,48.88163,2.31576,"Bars, Cafes",4 avenue des Villiers,"48.882428,2.314002"
861,La Meringaie,4.5,9,48.8822364807129,2.3154089450836204,"Desserts, Patisserie/Cake Shop",21 rue de Lévis,"48.882428,2.314002"
863,Le Club des 5,4.0,158,48.886,2.31904,French,57 rue des Batignolles,"48.882428,2.314002"
864,Le P'tit Canon,4.5,34,48.8843131,2.31478,French,36 rue Legendre,"48.882428,2.314002"
867,Sanki,4.5,56,48.836372,2.251768,Japanese,38 avenue Edouard Vaillant,"48.840579923690115,2.2584119439125065"
870,Elysées hong-kong,4.0,15,48.8417946,2.2589496,Chinese,80 rue Michel-Ange Paris,"48.840579923690115,2.2584119439125065"
871,Les Princes,3.5,18,48.83898,2.25536,"French, Breakfast & Brunch, Wine Bars",6 place du Docteur Paul Michaux,"48.840579923690115,2.2584119439125065"
874,La Garçonnière,3.5,16,48.84019,2.25807,French,98 rue Michel Ange,"48.840579923690115,2.2584119439125065"
875,Mon Bistrot,4.5,17,48.8357,2.25355,"French, Bistros",33 rue Marcel Dassault,"48.840579923690115,2.2584119439125065"
877,Le Congrès Auteuil,4.0,32,48.84767,2.25983,"French, Seafood",144 boulevard Exelmans,"48.840579923690115,2.2584119439125065"
878,Holiday Café,4.0,5,48.83923966346929,2.26105134025491,"Cafes, Breakfast & Brunch, French",192 avenue de Versailles,"48.840579923690115,2.2584119439125065"
879,Al Mina,4.0,5,48.8388,2.26131,Lebanese,19 Rue Le Marois,"48.840579923690115,2.2584119439125065"
882,Pizzeria d'Auteuil,3.5,64,48.848561,2.265715,"Italian, Pizza",81 rue Jean de la Fontaine,"48.840579923690115,2.2584119439125065"
883,Le Petit Boileau,4.5,4,48.839859999999994,2.26165,Bistros,98 rue Boileau,"48.840579923690115,2.2584119439125065"
886,La Table des Troys,3.5,24,48.84553,2.42822,"French, Ice Cream & Frozen Yogurt",2 bis ave Paris,"48.84884147189881,2.426325418925233"
887,L'Atelier,4.0,12,48.8522855,2.4238087999999998,Italian,60 bis rue Robespierre,"48.84884147189881,2.426325418925233"
888,Rio Dos Camaraos,4.5,18,48.85322,2.42612,Senegalese,55 Rue Marceau,"48.84884147189881,2.426325418925233"
889,Les Laitières,4.0,2,48.848912,2.426425,Brasseries,38 rue de Lagny,"48.84884147189881,2.426325418925233"
890,L'Amourette,3.5,35,48.853119899999996,2.4235699,French,54 rue Robespierre,"48.84884147189881,2.426325418925233"
891,La Cantine,3.5,16,48.84667,2.42807,"French, Brasseries, Breakfast & Brunch",10 Rue Victor Basch,"48.84884147189881,2.426325418925233"
892,Zaatar Liban,4.0,1,48.8489229806917,2.42644798010588,"Lebanese, Sandwiches",36 rue de Fontenay,"48.84884147189881,2.426325418925233"
893,La Cave,4.0,35,48.857604729291104,2.4342078221510497,"French, Wine Bars",45 rue de Paris,"48.84884147189881,2.426325418925233"
894,Le Méditerrannée - Les Saveurs de Djerba,4.0,21,48.846000000000004,2.43522,"Moroccan, Mediterranean, Oriental",14 rue Robert Giraudineau,"48.84884147189881,2.426325418925233"
895,Aux Trois Bonheurs,2.0,3,48.84868,2.4263499,"Cantonese, Vietnamese",1 rue Laitières,"48.84884147189881,2.426325418925233"
897,El Gringo,3.5,45,48.845126,2.4341779999999997,Mexican,32 avenue de Paris,"48.84884147189881,2.426325418925233"
898,Absolu,4.0,24,48.844941859013005,2.4357668805936,Modern European,22 avenue de Paris,"48.84884147189881,2.426325418925233"
899,Château de Vincennes,4.0,37,48.84257,2.435489,"Landmarks & Historical Buildings, Castles",Avenue de Paris,"48.84884147189881,2.426325418925233"
900,Chalet du Lac,3.0,23,48.842931,2.422087,"French, Dance Clubs, Italian",Avenue de Bel Air,"48.84884147189881,2.426325418925233"
901,Tomo,4.5,9,48.841060600000006,2.4175,Japanese,70 ave du Général de Gaulle,"48.84884147189881,2.426325418925233"
902,L'Atelier du Déjeuner,4.5,3,48.84878707399489,2.42300806997525,Sandwiches,19 avenue Georges Clemenceau,"48.84884147189881,2.426325418925233"
903,Chez Antoine,4.0,17,48.84646289924461,2.42906971581393,"Pizza, Italian",2 avenue de la Republique,"48.84884147189881,2.426325418925233"
904,On Dine a la Cheminé,3.0,8,48.849109999999996,2.42234,"Italian, Pizza",33 rue de Lagny,"48.84884147189881,2.426325418925233"
908,Chéri-Chérie,4.5,16,48.87305070000001,2.4047598999999997,"French, Bars",203 avenue Gambetta,"48.8804934032465,2.39806417375803"
909,Les Mères Veilleuses,4.0,14,48.88051,2.3968700000000003,"Bars, Jazz & Blues, French, Food",67 rue Mouzaia,"48.8804934032465,2.39806417375803"
910,Mensae,4.5,20,48.87574,2.38571,French,23 rue Mélingue,"48.8804934032465,2.39806417375803"
911,Il Posto,4.0,23,48.874033000000004,2.386386,"Pizza, Italian",356 rue des Pyrenees,"48.8804934032465,2.39806417375803"
913,Rosa Bonheur,3.5,114,48.879938,2.386241,"Bars, Dance Clubs, Tapas Bars",2 allée de la Cascade,"48.8804934032465,2.39806417375803"
914,Afrik'N'Fusion 20ème,4.0,17,48.873250799999994,2.3904411,African,330 rue des Pyrénées,"48.8804934032465,2.39806417375803"
915,Le Pré en Bulles,4.0,15,48.8858284,2.4006401000000004,Bistros,34 rue d'Estienne d'Orves,"48.8804934032465,2.39806417375803"
916,Parc de Belleville,4.0,37,48.8715080998799,2.38547373921373,Parks,47 rue des Couronnes,"48.8804934032465,2.39806417375803"
917,Chez Papa,4.5,8,48.8762093,2.3927701,French,13 rue du Pré Saint-Gervais,"48.8804934032465,2.39806417375803"
918,Le Vieux Belleville,4.5,14,48.87168,2.38638,Bistros,12 rue Envierges,"48.8804934032465,2.39806417375803"
920,L'Escargot,4.0,60,48.877069968274,2.3879786075176,"French, Bars",50 rue Villette,"48.8804934032465,2.39806417375803"
921,Les Rigoles,3.5,25,48.87334,2.39004,"Brasseries, Bars",334 rue des Pyrénées,"48.8804934032465,2.39806417375803"
922,L'Heure Bleue,4.0,10,48.87916,2.39112,"French, Venues & Event Spaces",57 rue Arthur Rozier,"48.8804934032465,2.39806417375803"
923,Aarchna,3.5,27,48.87251,2.39938,Indian,19 rue Télégraphe,"48.8804934032465,2.39806417375803"
924,Aux Arts et Sciences Réunis,4.0,24,48.887363406083004,2.3867853048297003,French,161 avenue Jean Jaurès,"48.8804934032465,2.39806417375803"
925,Bishoku,5.0,3,48.8889,2.21293,Japanese,30 Avenue Champs Pierreux,"48.892648526839,2.2136941552162"
926,Bagel Chef,5.0,1,48.8886414,2.2125499,"American (Traditional), Cafes, Sandwiches",30 ave des Champs Pierreux,"48.892648526839,2.2136941552162"
928,Phar'Inn,4.0,1,48.892423,2.215331,Creperies,,"48.892648526839,2.2136941552162"
929,Parc André Malraux,3.5,3,48.890910999999996,2.215722,Parks,39 avenue Pablo Picasso,"48.892648526839,2.2136941552162"
930,Samourai Sushi Sun,4.5,3,48.8845260708049,2.2030284126580697,Japanese,22 ave Georges Clemenceau,"48.892648526839,2.2136941552162"
931,Carmina,4.5,2,48.8947792,2.2225499,Pizza,45 esplanade Charles de Gaulle,"48.892648526839,2.2136941552162"
932,Villa Tokyo,4.0,1,48.886027380886,2.2129011085389103,"Buffets, Chinese",180 avenue Georges Clémenceau,"48.892648526839,2.2136941552162"
933,La Quille de Nanterre,4.0,1,48.8975454411458,2.21970320862886,"Bowling, Bars, Pizza",133 place Nelson Mandela,"48.892648526839,2.2136941552162"
935,Starbucks,5.0,1,48.901047999999996,2.21351,Coffee & Tea,200 avenue Republique,"48.892648526839,2.2136941552162"
936,La Terrasse du Parc,4.0,5,48.8950169,2.2221412,Brasseries,60 Rue Salvador Allende,"48.892648526839,2.2136941552162"
937,88 Arago,2.5,3,48.90087,2.2246,"French, Bars",88 ave François Arago,"48.892648526839,2.2136941552162"
938,Le Carillon,3.0,1,48.8947141,2.222423,Moroccan,45 esplanade Charles de Gaulle,"48.892648526839,2.2136941552162"
939,Venizia,4.5,2,48.8951391,2.2238382999999997,Fast Food,97 Rue Trois Fontanot,"48.892648526839,2.2136941552162"
940,Grill Istanbul,5.0,1,48.8952427124075,2.22304918488972,"Turkish, Kebab",82 rue Salvador Allende,"48.892648526839,2.2136941552162"
941,Samama Pizza,3.5,3,48.88596,2.21218,"Pizza, Italian",166 avenue Georges Clemenceau,"48.892648526839,2.2136941552162"
942,Bicafé Nosso Portugal,5.0,1,48.88641,2.21017,"Portuguese, Bars",125 Avenue Georges Clemenceau,"48.892648526839,2.2136941552162"
943,Bar Le Chris'Phane,4.0,1,48.8928,2.20675,Restaurants,120 Rue 8 Mai 1945,"48.892648526839,2.2136941552162"
944,La Terrasse,4.0,1,48.8966338325519,2.22393240828706,"Bistros, Brasseries",367 Terrasses de l'Arche,"48.892648526839,2.2136941552162"
946,Edo Sushi,4.0,16,48.81677,2.32865,"Japanese, Sushi Bars",6 rue de la Vanne,"48.81807418981508,2.3267009854316716"
948,Bistro Le Physalis,3.0,73,48.81835,2.32266,Restaurants,47 avenue Henri Ginoux,"48.81807418981508,2.3267009854316716"
949,Pizzeria César,4.0,9,48.8194805,2.3233354,Italian,38 Avenue Henri Ginoux,"48.81807418981508,2.3267009854316716"
954,Chez Pineau,3.5,6,48.81865,2.32393,French,2 Bis Rue Theophile Gautier,"48.81807418981508,2.3267009854316716"
955,L'Opportuniste,3.5,24,48.8170924,2.3217155,"French, Bistros, Brasseries",65 ave Henri Ginoux,"48.81807418981508,2.3267009854316716"
958,Le Rubeo Monte,4.0,19,48.818255,2.319238,French,1 place de la Libération,"48.81807418981508,2.3267009854316716"
959,Le Florus,4.5,5,48.8177641,2.3234582,"Hotels, French",17 Rue Gabriel Péri,"48.81807418981508,2.3267009854316716"
960,The Himalayan,4.0,10,48.81923,2.3231900000000003,Restaurants,40 avenue Henri Ginoux,"48.81807418981508,2.3267009854316716"
961,Santa Rita,4.5,3,48.817106,2.3282689999999997,Italian,24 rue Barbès,"48.81807418981508,2.3267009854316716"
964,Monteleone,4.0,17,48.825006001677295,2.3202234004634503,Italian,68 avenue Jean Moulin,"48.81807418981508,2.3267009854316716"
968,Au Petit Suisse,4.0,113,48.84905,2.33901,"Brasseries, French",16 rue de Vaugirard,"48.848951441614,2.3411329463124"
978,Bouillon Racine,3.5,157,48.850219,2.342073,French,3 rue Racine,"48.848951441614,2.3411329463124"
979,Le Choupinet,4.0,19,48.84773320000001,2.3407139999999997,"Brasseries, French, Cafes",58 boulevard Saint-Michel,"48.848951441614,2.3411329463124"
980,La Ferrandaise,4.0,57,48.84905,2.33984,French,8 rue de Vaugirard,"48.848951441614,2.3411329463124"
982,Mad Maker Pub,3.5,66,48.8482835,2.3417383,"Pubs, Beer Bar, Cocktail Bars",22 rue Cujas,"48.848951441614,2.3411329463124"
984,Treize Bakery Paris,4.5,23,48.84864,2.3394499,Breakfast & Brunch,5 rue de Médicis,"48.848951441614,2.3411329463124"
986,Casa del Condor,4.0,17,48.784954,2.307255,"Latin American, Tex-Mex",72 avenue de Bourg la Reine,"48.78980918988166,2.3143940046429634"
988,Blé en Scène,4.5,3,48.7967153,2.3016912,"Creperies, French",10 ave Henri Ravera,"48.78980918988166,2.3143940046429634"
989,O Why not,5.0,1,48.792390000000005,2.32028,Restaurants,234 ave Aristide Briand,"48.78980918988166,2.3143940046429634"
990,Foulo,3.5,10,48.785458,2.317883,Chinese,27 avenue du Général Leclerc,"48.78980918988166,2.3143940046429634"
991,Domino's Pizza,5.0,1,48.787698999999996,2.318941,Pizza,1 avenue du Général Leclerc,"48.78980918988166,2.3143940046429634"
992,Au Carré Pizza,4.5,3,48.7891823,2.3189112,Pizza,288 ave aristide briand,"48.78980918988166,2.3143940046429634"
993,Sushi Samouraï 6,3.0,3,48.787777,2.318381,"Japanese, Sushi Bars",6 ave du Général Leclerc,"48.78980918988166,2.3143940046429634"
996,Hanako,4.0,1,48.79007,2.31961,Japanese,175 Avenue Aristide Briand,"48.78980918988166,2.3143940046429634"
997,La Panetiére,4.5,4,48.7944097,2.3214855,Bakeries,23 Rue Lavoisier,"48.78980918988166,2.3143940046429634"
998,Hogara,4.5,2,48.78239,2.3148299999999997,Japanese,45 bd du Maréchal Joffre,"48.78980918988166,2.3143940046429634"
999,Goût de l'Inde,5.0,1,48.794780700000004,2.3034898999999998,Indian,2 avenue Albert Petit,"48.78980918988166,2.3143940046429634"
1001,New Hanjo,4.0,6,48.794986,2.321468,Japanese,107 avenue Aristide Briand,"48.78980918988166,2.3143940046429634"
1002,Daniel Coupé,5.0,2,48.7852,2.30253,Butcher,70 ave Jean Perrin,"48.78980918988166,2.3143940046429634"
1003,Sushi Hikari,5.0,2,48.79718870000001,2.3219987,"Sushi Bars, Japanese",142 ave Aristide Briand,"48.78980918988166,2.3143940046429634"
1004,Sergio,4.0,2,48.78228,2.3276,Restaurants,53 avenue Division Leclerc,"48.78980918988166,2.3143940046429634"
1007,Le Comptoir de l'Artoise,5.0,24,48.872302000000005,2.3086580000000003,Italian,5 rue d'Artois,"48.871417284355,2.3076787590981"
1010,Le Boudoir,4.5,33,48.871049,2.308968,"French, Wine Bars",25 rue du Colisée,"48.871417284355,2.3076787590981"
1013,Le Bistro Marbeuf,4.0,141,48.868520000000004,2.3035,"French, Lyonnais",21 rue Marbeuf,"48.871417284355,2.3076787590981"
1014,Framboise,4.0,203,48.8702248907354,2.3106694221496604,Creperies,7 rue de Ponthieu,"48.871417284355,2.3076787590981"
1015,Kisin,4.5,18,48.870264,2.310648,Japanese,7-9 rue de Ponthieu,"48.871417284355,2.3076787590981"
1016,La Maison de l'Aubrac,3.5,193,48.869639899999996,2.30524,"French, Brasseries",37 rue Marbeuf,"48.871417284355,2.3076787590981"
1017,Le Relais de l’Entrecôte,4.0,545,48.86808,2.30295,Steakhouses,15 rue Marbeuf,"48.871417284355,2.3076787590981"
1020,Dogstar Club,3.5,51,48.871469,2.306633,"Italian, Cocktail Bars, Hookah Bars",122 rue La Boétie,"48.871417284355,2.3076787590981"
1022,Monsieur Bleu,4.0,186,48.863716,2.296757,"French, Breakfast & Brunch",20 avenue de New York,"48.871417284355,2.3076787590981"
1023,L’Entrecôte de Paris,3.5,81,48.86965,2.30645,French,29 rue de Marignan,"48.871417284355,2.3076787590981"
1024,Soon,4.0,46,48.87095,2.31163,Korean,20 Rue Jean Mermoz,"48.871417284355,2.3076787590981"
1027,La Table d'Eugène,4.5,68,48.89111,2.34693,French,18 rue Eugène Sue,"48.888735896947,2.3469526693225"
1030,L'Atelier Ramey,5.0,24,48.888275,2.3467099300594305,Bistros,23 rue Ramey,"48.888735896947,2.3469526693225"
1031,Enishi,4.5,36,48.88876,2.34602,Japanese,67 rue Labat,"48.888735896947,2.3469526693225"
1033,Le Petit Bleu,4.0,61,48.88635,2.3452,"Mediterranean, Barbeque, Oriental",23 rue Muller,"48.888735896947,2.3469526693225"
1035,Au Paradis Tropical,4.5,10,48.88783,2.3489299999999997,Caribbean,6 rue Custine,"48.888735896947,2.3469526693225"
1038,Pizzeria Mancini,4.5,14,48.88893,2.34476,"Pizza, Italian",20 rue Bachelet,"48.888735896947,2.3469526693225"
1039,La Rallonge,4.0,27,48.89112120000001,2.3470237000000003,"Tapas/Small Plates, French, Spanish",16 rue Eugene Sue,"48.888735896947,2.3469526693225"
1040,La Boîte aux Lettres,5.0,48,48.8868300540186,2.3381794989109,French,108 rue Lepic,"48.888735896947,2.3469526693225"
1041,L'Eté en Pente Douce,3.5,104,48.886384087927,2.3452077833272997,French,23 rue Muller,"48.888735896947,2.3469526693225"
1042,Le Cabanon de la Butte,4.5,16,48.8866299,2.34436,French,6 rue Lamarck,"48.888735896947,2.3469526693225"
1043,Le Super Coin,4.5,43,48.89212,2.347,"Bars, Bistros",3 rue Baudelique,"48.888735896947,2.3469526693225"
1044,Le Poulbot,4.5,55,48.887586,2.339819,French,3 rue Poulbot,"48.888735896947,2.3469526693225"
1045,La Bellevilloise,3.5,143,48.86829,2.39221,"Dance Clubs, Music Venues, Modern European, Bars",19 - 21 rue Boyer,"48.8693268535238,2.395084574818611"
1046,La Maroquinerie,4.5,86,48.86826,2.39229,"Bars, Music Venues",23 Rue Boyer,"48.8693268535238,2.395084574818611"
1047,Le Tablier Rouge,4.5,9,48.86887,2.3972,French,40 Rue Chine,"48.8693268535238,2.395084574818611"
1048,Aux Ours,3.5,29,48.867500299999996,2.39661,"Cafes, French, Bars",236 rue des Pyrénées,"48.8693268535238,2.395084574818611"
1050,Shingané,4.0,43,48.86497,2.39603,Korean,63 ave de Gambetta,"48.8693268535238,2.395084574818611"
1051,Chantefable,3.5,71,48.866365027816,2.3994134187262,"French, Seafood",93 ave Gambetta,"48.8693268535238,2.395084574818611"
1053,Benoît Castel,4.0,18,48.8703669,2.3981757000000004,Bakeries,150 rue de Ménilmontant,"48.8693268535238,2.395084574818611"
1054,Là Haut,3.5,22,48.870664,2.395471,French,10 rue Pixérécourt,"48.8693268535238,2.395084574818611"
1055,Le Bistrot des Soupirs,4.0,17,48.8693,2.39665,French,49 Rue De La Chine,"48.8693268535238,2.395084574818611"
1056,Scoop Me A Cookie,4.5,37,48.86623,2.38167,"Bakeries, Desserts",5/7 rue Crespin du Gast,"48.8693268535238,2.395084574818611"
1057,Ma Pomme en Colimaçon,4.5,9,48.869257,2.392259,Cafes,107 rue de Ménilmontant,"48.8693268535238,2.395084574818611"
1059,Aux Petits Oignons,4.5,51,48.868136,2.3999650000000003,Bistros,11 rue Dupont de l'Eure,"48.8693268535238,2.395084574818611"
1060,Les Trois 8,4.5,31,48.8666847,2.3855098999999997,"Beer Bar, Wine Bars",11 rue Victor Letalle,"48.8693268535238,2.395084574818611"
1061,Le Perchoir,3.5,92,48.86529,2.38249,"French, Cocktail Bars",14 rue Crespin Dugast,"48.8693268535238,2.395084574818611"
1062,Le Servan,4.0,35,48.8610001,2.3813601,"Modern European, Bistros",32 rue Saint Maur,"48.8693268535238,2.395084574818611"
1064,Neelkanth,4.5,3,48.8700976,2.3959852,Indian,72 Bis Rue De La Chine,"48.8693268535238,2.395084574818611"
1066,Frenchie Restaurant,4.5,224,48.867754322367,2.3477420774331,"French, Modern European",5-6 rue du Nil,"48.86785342111862,2.349364310503006"
1067,L'Ivress Sentier,4.5,59,48.86872,2.34761,"Wine Bars, Tapas/Small Plates",5 rue Poissonnière,"48.86785342111862,2.349364310503006"
1068,Bar à Vins Frenchie,4.5,137,48.8678119,2.3479551,Wine Bars,6 rue du Nil,"48.86785342111862,2.349364310503006"
1070,Lockwood,4.0,105,48.8677808712918,2.34699741349186,"Tapas/Small Plates, Cocktail Bars, Breakfast & Brunch",73 rue d'Aboukir,"48.86785342111862,2.349364310503006"
1071,Boulettes,4.5,49,48.86557,2.35045,French,179 rue Saint-Denis,"48.86785342111862,2.349364310503006"
1072,Johana's Fish & Chips,4.5,45,48.866287799999995,2.3476733,Fish & Chips,30 rue Saint-Sauveur,"48.86785342111862,2.349364310503006"
1073,Hero,4.0,77,48.86942,2.3523299,"Korean, Cocktail Bars",289 rue Saint-Denis,"48.86785342111862,2.349364310503006"
1075,Uma Nota,4.5,13,48.86677,2.35052,International,86 rue Réaumur,"48.86785342111862,2.349364310503006"
1077,Kapunka,4.5,49,48.8662,2.3477,"Thai, Gluten-Free",51 rue Saint-Sauveur,"48.86785342111862,2.349364310503006"
1078,Cafe Madam,4.0,83,48.8655891,2.3506701,"Coffee & Tea, Breakfast & Brunch",150 rue Saint-Denis,"48.86785342111862,2.349364310503006"
1079,Le Distrait,5.0,10,48.869890000000005,2.34919,"Tapas/Small Plates, Cocktail Bars",26 rue de la Lune,"48.86785342111862,2.349364310503006"
1082,Cloud Cakes,4.5,84,48.86592,2.346318,"Patisserie/Cake Shop, Coffee & Tea, Vegan",6 rue Mandar,"48.86785342111862,2.349364310503006"
1083,Redd,5.0,15,48.8662544519684,2.34768457710743,"Wine Bars, Tapas Bars",28 rue Saint-Sauveur,"48.86785342111862,2.349364310503006"
1084,Mabel,4.5,46,48.867338000000004,2.3461304,Cocktail Bars,58 rue d'Aboukir,"48.86785342111862,2.349364310503006"
1089,Braisenville,4.0,59,48.879940000000005,2.34508,"French, Cocktail Bars",36 rue Condorcet,"48.879161,2.343698"
1091,Lakshmi Bhavan,4.5,25,48.8810196,2.3441099999999997,Indian,57 rue Rodier,"48.879161,2.343698"
1092,Pizza Di Loretta,4.5,63,48.88067,2.344,"Italian, Pizza",62 rue Rodier,"48.879161,2.343698"
1093,Chungking Express,4.5,20,48.8788012590711,2.3448543785506,"Chinese, Hot Pot",5 rue de la Tour d'Auvergne,"48.879161,2.343698"
1095,Piccola Toscana,4.5,30,48.877289700000006,2.3461,Italian,10 rue Rochambeau,"48.879161,2.343698"
1097,La Condesa,4.5,13,48.878555,2.3427599999999997,French,17 rue Rodier,"48.879161,2.343698"
1102,Mi Ranchito Paisa,4.0,94,48.876509999999996,2.3448900000000004,Colombian,35 rue Montholon,"48.879161,2.343698"
1103,Le Potager de Charlotte,4.5,35,48.87894,2.34472,"Vegan, Juice Bars & Smoothies",12 rue de la Tour d'Auvergne,"48.879161,2.343698"
1104,Le Bébé,4.0,27,48.8773165,2.3470364,"Bistros, French",8 rue Pierre Sémard,"48.879161,2.343698"
1113,David Toutain,4.5,75,48.860227,2.309735,Modern European,29 rue Surcouf,"48.861411014652,2.3201214185208"
1114,Happy Caffé,5.0,93,48.86476,2.329615,"Creperies, Sandwiches",214 rue de Rivoli,"48.861411014652,2.3201214185208"
1117,Chez Françoise,4.0,118,48.862116,2.314832,French,Aérogare des Invalides,"48.861411014652,2.3201214185208"
1121,Costa d'Amalfi,4.5,13,48.859208,2.3234209999999997,Italian,65 rue de l'Université,"48.861411014652,2.3201214185208"
1122,Musée de l’Orangerie,4.5,223,48.863791,2.322667,Museums,Place de la Concorde,"48.861411014652,2.3201214185208"
1123,L'Ardoise,4.0,197,48.866170000000004,2.32709,French,28 rue du Mont Thabor,"48.861411014652,2.3201214185208"
1124,Restaurant le Meurice Alain Ducasse,4.0,89,48.865159999999996,2.32807,French,228 rue de Rivoli,"48.861411014652,2.3201214185208"
1129,Belushi's,2.5,32,48.879327200000006,2.3580702999999996,"Burgers, Sports Bars, Music Venues",5 rue de Dunkerque,"48.879355,2.358379"
1133,Krishna Bhavan,4.0,133,48.882901000000004,2.359645,"Vegetarian, Indian",24 rue Cail,"48.879355,2.358379"
